[{"id":3967853445,"lat":29.80375,"lon":67.40316,"name":"Aab-e-Gum","nameLocal":"آبِ گم","type":"station"},{"id":3965893618,"lat":28.1923,"lon":68.51907,"name":"Abad","nameLocal":"آباد","type":"station"},{"id":1482599739,"lat":31.32885,"lon":72.94568,"name":"Abbaspur Railway Station","nameLocal":"عباس پور ریلوے اسٹیشن","type":"station"},{"id":1482943905,"lat":30.55444,"lon":72.1318,"name":"Abdul Hakim Railway Station","nameLocal":"عبدالحکیم ریلوے اسٹیشن","type":"station"},{"id":13363811450,"lat":29.58317,"lon":66.07169,"name":"Ablak","nameLocal":"ابلک","type":"station"},{"id":168242251,"lat":30.13942,"lon":74.19535,"name":"Abohar Junction","type":"station"},{"id":2188367338,"lat":24.48127,"lon":72.78529,"name":"Abu Road","type":"station"},{"id":784500821,"lat":27.18159,"lon":77.75818,"name":"Achhnera Junction","type":"station"},{"id":13306280308,"lat":28.3597,"lon":70.22436,"name":"Adam Sahaba","nameLocal":"آدم صحابہ","type":"station"},{"id":12723689032,"lat":29.46708,"lon":71.64517,"name":"Adam Wahan","nameLocal":"آدم واہن ریلوے اسٹیشن","type":"station"},{"id":920882336,"lat":28.7144,"lon":77.16729,"name":"Adarsh Nagar","type":"station"},{"id":1844564358,"lat":26.41094,"lon":74.65353,"name":"Adarshnagar","type":"station"},{"id":3067941613,"lat":32.02406,"lon":76.7069,"name":"Ahju","type":"station"},{"id":2447748747,"lat":32.57318,"lon":73.3934,"name":"Ahla","type":"station"},{"id":1208529511,"lat":30.6835,"lon":75.829,"name":"Ahmedgarh","type":"station"},{"id":13363900231,"lat":29.39539,"lon":65.94274,"name":"Ahmedwal","nameLocal":"احمد وال","type":"station"},{"id":4104333346,"lat":24.88612,"lon":67.14408,"name":"Airport","type":"station"},{"id":5046094719,"lat":28.47231,"lon":77.59413,"name":"Ajaibpur","type":"station"},{"id":1947268450,"lat":27.96022,"lon":76.5638,"name":"Ajaraka","type":"station"},{"id":6188116437,"lat":27.63625,"lon":77.55809,"name":"Ajhai","type":"station"},{"id":2189928464,"lat":25.85968,"lon":72.67746,"name":"Ajit","type":"station"},{"id":2663354787,"lat":30.80827,"lon":75.33535,"name":"Ajitwal","type":"station"},{"id":2188100751,"lat":26.45634,"lon":74.63735,"name":"Ajmer Junction","type":"station"},{"id":2447846977,"lat":32.20231,"lon":72.82638,"name":"Ajnalah","type":"station"},{"id":2433508564,"lat":30.92128,"lon":73.68131,"name":"Akhtar Abad","nameLocal":"اختر آباد","type":"station"},{"id":913354353,"lat":32.66579,"lon":73.87373,"name":"Akhtar Karnana Railway Station","nameLocal":"اختر کرنانہ ریلوے سٹیشن","type":"station"},{"id":13301788545,"lat":33.99468,"lon":72.14715,"name":"Akora Khattak","nameLocal":"اکوڑا خٹک","type":"station"},{"id":504034446,"lat":28.61793,"lon":77.27942,"name":"Akshardham","type":"station"},{"id":6370766657,"lat":31.16777,"lon":76.12771,"name":"Alachor","type":"station"},{"id":1942486347,"lat":27.33762,"lon":73.58519,"name":"Alai","type":"station"},{"id":6016332438,"lat":30.37716,"lon":75.73194,"name":"Alal","type":"station"},{"id":13364300804,"lat":28.83183,"lon":62.46776,"name":"Alam Reg","nameLocal":"عالم ریگ","type":"station"},{"id":1374236227,"lat":31.42553,"lon":75.64286,"name":"Alawalpur","type":"station"},{"id":1244519618,"lat":32.25544,"lon":73.81645,"name":"Alipur Chatha Railway Station","nameLocal":"علی پور چٹھہ ریلوے اسٹیشن","type":"station"},{"id":13367312840,"lat":27.78994,"lon":68.56558,"name":"Allahdadani","nameLocal":"الله دادانی","type":"station"},{"id":9958165147,"lat":25.50354,"lon":68.52231,"name":"Allahdino Sand","nameLocal":"ﷲ دینو ساند","type":"station"},{"id":4292829944,"lat":32.36496,"lon":71.41851,"name":"Alluwali","nameLocal":"علو والی","type":"station"},{"id":1945761446,"lat":25.03218,"lon":75.90908,"name":"Alniya","type":"station"},{"id":1494011690,"lat":27.56049,"lon":76.62135,"name":"Alwar Junction","type":"station"},{"id":6414886354,"lat":28.00956,"lon":76.05508,"name":"Amarpur Jorasi","type":"station"},{"id":1943156585,"lat":26.11421,"lon":74.2567,"name":"Amarpura","type":"station"},{"id":1351775630,"lat":31.67035,"lon":76.11037,"name":"Amb Andaura","type":"station"},{"id":1682138966,"lat":30.33824,"lon":76.8287,"name":"Ambala Cantonment Junction","type":"station"},{"id":1880739921,"lat":30.37807,"lon":76.76464,"name":"Ambala City","type":"station"},{"id":345195519,"lat":29.90462,"lon":76.8996,"name":"Amin","type":"station"},{"id":13357635367,"lat":29.67547,"lon":71.97409,"name":"Amirpur Halt","nameLocal":"امیر پور ہالٹ","type":"halt"},{"id":1946387850,"lat":25.82813,"lon":76.28594,"name":"Amli","type":"station"},{"id":869021612,"lat":26.16983,"lon":68.0087,"name":"Amri","nameLocal":"آمری","type":"station"},{"id":2669084974,"lat":31.63321,"lon":74.86714,"name":"Amritsar Junction","type":"station"},{"id":720622613,"lat":30.28913,"lon":73.88875,"name":"Amruka","type":"station"},{"id":6403401742,"lat":28.18367,"lon":76.60554,"name":"Anajmandi Rewari","type":"station"},{"id":252584508,"lat":28.64981,"lon":77.3145,"name":"Anand Vihar","type":"station"},{"id":10700089589,"lat":28.64747,"lon":77.3168,"name":"Anand Vihar","type":"station"},{"id":944845341,"lat":28.64885,"lon":77.3155,"name":"Anand Vihar Terminal","type":"station"},{"id":1364801853,"lat":31.22999,"lon":76.50058,"name":"Anandpur Sahib","type":"station"},{"id":1077030271,"lat":33.73858,"lon":75.10743,"name":"Anantnag","type":"station"},{"id":611921783,"lat":31.56248,"lon":74.30933,"name":"Anarkali","type":"station"},{"id":9787560276,"lat":37.01444,"lon":65.13498,"name":"Andkhoy","nameLocal":"اندخوی","type":"station"},{"id":6264212601,"lat":26.60444,"lon":77.46293,"name":"Angai","type":"station"},{"id":1946215266,"lat":25.16081,"lon":76.30715,"name":"Antah","type":"station"},{"id":1199726287,"lat":29.19674,"lon":73.20462,"name":"Anupgarh","type":"station"},{"id":1940218093,"lat":28.94752,"lon":75.21231,"name":"Anupshahr","type":"station"},{"id":6155365556,"lat":26.64706,"lon":76.31193,"name":"Araniya Kalan Salempura","type":"station"},{"id":3965893619,"lat":27.73216,"lon":68.81412,"name":"Arian Road","nameLocal":"آرائیں روڈ","type":"station"},{"id":2420118480,"lat":30.29331,"lon":73.06536,"name":"Arifwala","nameLocal":"عارف والہ","type":"station"},{"id":1910439445,"lat":28.93194,"lon":73.87181,"name":"Arjansar","type":"station"},{"id":1946387848,"lat":25.38987,"lon":76.01858,"name":"Arnetha","type":"station"},{"id":1947161464,"lat":27.01064,"lon":76.51774,"name":"Arniya","type":"station"},{"id":2187794618,"lat":26.90055,"lon":75.42436,"name":"AsaIpur Jobner","type":"station"},{"id":2650054070,"lat":29.40135,"lon":76.86937,"name":"Asan","type":"station"},{"id":1760974301,"lat":28.25318,"lon":77.32362,"name":"Asaoti","type":"station"},{"id":6290617350,"lat":28.73676,"lon":76.85971,"name":"Asaudah","type":"station"},{"id":2916288871,"lat":30.64891,"lon":70.95127,"name":"Ashanpur","nameLocal":"احسان پور","type":"station"},{"id":353681517,"lat":26.95056,"lon":71.8931,"name":"Ashapura Gomat","type":"station"},{"id":1845300645,"lat":24.57924,"lon":77.72797,"name":"Ashok Nagar","type":"station"},{"id":13357635328,"lat":29.75513,"lon":72.11059,"name":"Ashraf Shah","nameLocal":"اشرف شاہ","type":"station"},{"id":1850077914,"lat":28.36852,"lon":75.07516,"name":"Aslu","type":"station"},{"id":2189861646,"lat":26.3974,"lon":73.30598,"name":"Asranada","type":"station"},{"id":1759694209,"lat":28.85815,"lon":76.62905,"name":"Asthal Bohar Junction","type":"station"},{"id":2794217340,"lat":36.81812,"lon":61.08444,"name":"Ata","type":"station"},{"id":1737506328,"lat":28.10066,"lon":76.25353,"name":"Ateli","type":"station"},{"id":13356172402,"lat":31.16137,"lon":74.38721,"name":"Athilpur","nameLocal":"اتھل پور","type":"station"},{"id":1946215267,"lat":24.88207,"lon":76.67005,"name":"Atru","type":"station"},{"id":99903377,"lat":31.59455,"lon":74.60662,"name":"Attari","type":"station"},{"id":2279562922,"lat":33.77451,"lon":72.35162,"name":"Attock City Junction","nameLocal":"اٹک سٹی جنکشن","type":"station"},{"id":2432160530,"lat":33.87368,"lon":72.24094,"name":"Attock Khurd","nameLocal":"اٹک خورد","type":"station"},{"id":6712644012,"lat":27.03289,"lon":77.61576,"name":"Aulenda","type":"station"},{"id":1944064463,"lat":25.66066,"lon":73.5615,"name":"Auwa","type":"station"},{"id":1077030354,"lat":33.888,"lon":74.99189,"name":"Awantipura","type":"station"},{"id":13364187770,"lat":28.75007,"lon":63.13722,"name":"Azad","nameLocal":"آزاد","type":"station"},{"id":13316937427,"lat":29.57014,"lon":70.53371,"name":"Azmatwala","nameLocal":"عظمت والا","type":"station"},{"id":6187392627,"lat":27.39709,"lon":77.68821,"name":"Baad","type":"station"},{"id":6357918448,"lat":31.35138,"lon":75.56673,"name":"Baba Sodhal Nagar","type":"station"},{"id":13359948526,"lat":29.79227,"lon":67.98641,"name":"Babar Kachh","nameLocal":"بابر کچھ","type":"station"},{"id":876097302,"lat":33.52942,"lon":71.57571,"name":"Babari Banda","nameLocal":"بابری بانڈہ","type":"station"},{"id":345195626,"lat":29.44998,"lon":76.96662,"name":"Babarpur","type":"station"},{"id":5912821508,"lat":27.32894,"lon":68.02868,"name":"Badah","nameLocal":"باڈہ","type":"station"},{"id":13368860507,"lat":24.84483,"lon":67.36716,"name":"Badal Nala","nameLocal":"بادل نالا","type":"station"},{"id":2433364438,"lat":31.59603,"lon":74.31719,"name":"Badami Bagh","nameLocal":"بادامی باغ","type":"station"},{"id":581226084,"lat":28.49326,"lon":77.30303,"name":"Badarpur","type":"station"},{"id":2185643902,"lat":24.98359,"lon":77.56228,"name":"Badarwas","type":"station"},{"id":1064270841,"lat":34.03852,"lon":74.73602,"name":"Badgam station","type":"station"},{"id":1947132905,"lat":27.25141,"lon":75.45087,"name":"Badhal","type":"station"},{"id":2364735503,"lat":24.66233,"lon":68.83847,"name":"Badin","nameLocal":"بدين","type":"station"},{"id":13316937453,"lat":28.76735,"lon":70.0657,"name":"Badli Mazari","nameLocal":"بدلی مزاری","type":"station"},{"id":13316937454,"lat":29.18768,"lon":70.36878,"name":"Badli Mazari","nameLocal":"بدلی مزاری","type":"station"},{"id":6369920097,"lat":30.86552,"lon":75.75371,"name":"Badowal","type":"station"},{"id":1942486348,"lat":27.31087,"lon":73.66285,"name":"Badwasi","type":"station"},{"id":928023324,"lat":28.95737,"lon":77.27205,"name":"Baghpat Road","type":"station"},{"id":13347265859,"lat":33.99865,"lon":71.32482,"name":"Bagiari","nameLocal":"باگیاری","type":"station"},{"id":869008724,"lat":26.3465,"lon":67.871,"name":"Bago Toro","type":"station"},{"id":2188190130,"lat":25.89557,"lon":73.78787,"name":"Bagri Nagar","type":"station"},{"id":2188190131,"lat":25.91852,"lon":73.82462,"name":"Bagri Sajjanpur","type":"station"},{"id":6264391609,"lat":26.7962,"lon":77.5223,"name":"Bagthar","type":"station"},{"id":6300594171,"lat":30.03477,"lon":74.77461,"name":"Bagwali","type":"station"},{"id":5737166743,"lat":28.70122,"lon":76.93036,"name":"Bahadurgarh","type":"station"},{"id":6051469958,"lat":30.30856,"lon":75.85478,"name":"Bahadursinghwala","type":"station"},{"id":1973008394,"lat":31.73859,"lon":73.68603,"name":"Bahalike","nameLocal":"بہالیکے","type":"station"},{"id":6297955759,"lat":30.14663,"lon":74.2763,"name":"Bahawalbas","type":"station"},{"id":545092993,"lat":29.40295,"lon":71.65232,"name":"Bahawalpur","nameLocal":"بہاولپور ریلوے اسٹیشن","type":"station"},{"id":6334703898,"lat":30.53293,"lon":74.16881,"name":"Bahmni Wala","type":"station"},{"id":1351775916,"lat":31.19591,"lon":75.90161,"name":"Bahram","type":"station"},{"id":3067941614,"lat":32.05115,"lon":76.6351,"name":"Baijnath Paprola","type":"station"},{"id":1946919383,"lat":26.90179,"lon":75.78951,"name":"Bais Godam","type":"station"},{"id":1078602615,"lat":32.76205,"lon":74.95212,"name":"Bajalta","type":"station"},{"id":13351970904,"lat":27.40996,"lon":68.09729,"name":"Bakhsh Jatoi","nameLocal":"بخش جتوئی","type":"station"},{"id":13350748339,"lat":28.36246,"lon":69.37945,"name":"Bakhshapur","nameLocal":"بخشاپور","type":"station"},{"id":1371190603,"lat":33.1411,"lon":74.89529,"name":"Bakkal","type":"station"},{"id":1668749367,"lat":25.21366,"lon":72.48871,"name":"Bakra Road","type":"station"},{"id":11633742021,"lat":33.07535,"lon":73.44863,"name":"Bakrala","nameLocal":"بکٹرالہ ریلوے اسٹیشن","type":"station"},{"id":10635235593,"lat":27.458,"lon":68.13804,"name":"Bakrani Road","nameLocal":"باکرانی روڈ","type":"station"},{"id":636204241,"lat":34.0082,"lon":73.08905,"name":"Baldher Station","type":"station"},{"id":8294625990,"lat":24.87445,"lon":66.96896,"name":"Baldia","nameLocal":"بلدیہ","type":"station"},{"id":6170202712,"lat":29.92839,"lon":77.63364,"name":"Baliakheri","type":"station"},{"id":13351971050,"lat":27.10926,"lon":67.90846,"name":"Balishah","nameLocal":"بالی شاہ","type":"station"},{"id":1834247581,"lat":28.34026,"lon":77.3122,"name":"Ballabgarh","type":"station"},{"id":2189928465,"lat":25.83006,"lon":72.24709,"name":"Balotra","type":"station"},{"id":1942875658,"lat":27.58121,"lon":74.47356,"name":"Balsamand","type":"station"},{"id":1357563169,"lat":27.88358,"lon":75.24516,"name":"Balwantpura Chelasi","type":"station"},{"id":1943845986,"lat":25.50147,"lon":72.55449,"name":"Balwara","type":"station"},{"id":1212547271,"lat":29.51067,"lon":77.7065,"name":"Baman Heri","type":"station"},{"id":10235556627,"lat":26.53497,"lon":76.57863,"name":"Bamanwas","type":"station"},{"id":1757484824,"lat":28.83119,"lon":76.22939,"name":"Bamla","type":"station"},{"id":1943845987,"lat":25.762,"lon":72.54414,"name":"Bamsin","type":"station"},{"id":2189861647,"lat":26.33953,"lon":73.14706,"name":"Banar","type":"station"},{"id":2188367339,"lat":24.71382,"lon":72.98951,"name":"Banas","type":"station"},{"id":2188691237,"lat":26.38389,"lon":75.93532,"name":"Banasthali Niwai","type":"station"},{"id":6188246290,"lat":27.94568,"lon":77.36322,"name":"Banchari","type":"station"},{"id":2188410162,"lat":26.12321,"lon":74.69116,"name":"Bandanwara","type":"station"},{"id":2075083482,"lat":26.91048,"lon":77.36428,"name":"Bandh Baretha","type":"station"},{"id":13301120585,"lat":26.58657,"lon":68.30139,"name":"Bandhi","nameLocal":"باندھی","type":"station"},{"id":2187740307,"lat":27.04003,"lon":76.56672,"name":"Bandikui Junction","type":"station"},{"id":1351765245,"lat":31.17699,"lon":75.99928,"name":"Banga","type":"station"},{"id":5697429929,"lat":26.14091,"lon":74.34854,"name":"Bangurgram","type":"station"},{"id":2671393220,"lat":33.45076,"lon":75.18914,"name":"Banihal","type":"station"},{"id":1910223237,"lat":28.06701,"lon":73.89412,"name":"Banisar","type":"station"},{"id":2189928466,"lat":25.85976,"lon":71.66827,"name":"Baniya Sanda Dhora","type":"station"},{"id":6155365557,"lat":26.823,"lon":76.29673,"name":"Baniyana","type":"station"},{"id":2447813891,"lat":32.5382,"lon":73.17231,"name":"Banna Mianwala","type":"station"},{"id":6565701472,"lat":24.36629,"lon":74.38478,"name":"Bansi Bohera","type":"station"},{"id":2187740707,"lat":26.93459,"lon":77.48231,"name":"Bansi Paharpur","type":"station"},{"id":1007116120,"lat":26.85731,"lon":76.16842,"name":"Banskho","type":"station"},{"id":2188190132,"lat":25.60222,"lon":73.52745,"name":"Banta Raghunathgarh","type":"station"},{"id":1939878661,"lat":29.92009,"lon":74.03001,"name":"Banwali","type":"station"},{"id":6700562069,"lat":27.43796,"lon":75.4767,"name":"Baori Thikria","type":"station"},{"id":1777886185,"lat":27.37879,"lon":72.38547,"name":"Bap","type":"station"},{"id":2188190133,"lat":26.06407,"lon":74.11111,"name":"Bar","type":"station"},{"id":13363563914,"lat":29.81174,"lon":66.4833,"name":"Barag Khurd","nameLocal":"برگ خرد","type":"station"},{"id":1800443543,"lat":29.69746,"lon":75.00184,"name":"Baragudha","type":"station"},{"id":8999686411,"lat":28.49604,"lon":77.80987,"name":"Baral","type":"station"},{"id":1472750985,"lat":28.49618,"lon":77.80975,"name":"Baral","type":"station"},{"id":1015429214,"lat":34.22069,"lon":74.38831,"name":"Baramula","type":"station"},{"id":1429155645,"lat":25.09527,"lon":76.50705,"name":"Baran","type":"station"},{"id":3046558115,"lat":30.21287,"lon":77.03849,"name":"Barara","type":"station"},{"id":2075195809,"lat":26.54814,"lon":77.42257,"name":"Barauli","type":"station"},{"id":1218978767,"lat":29.09692,"lon":77.27292,"name":"Baraut","type":"station"},{"id":5777586394,"lat":29.8597,"lon":75.69244,"name":"Bareta","type":"station"},{"id":1315874210,"lat":26.64986,"lon":77.61761,"name":"Bari","type":"station"},{"id":674500841,"lat":32.63858,"lon":74.9164,"name":"Bari Brahman","type":"station"},{"id":1944914349,"lat":24.41152,"lon":74.46897,"name":"Bari Sadri","type":"station"},{"id":6334582085,"lat":27.43972,"lon":72.43893,"name":"Bari Sird","type":"station"},{"id":6008179332,"lat":30.53085,"lon":74.65494,"name":"Bariwala","type":"station"},{"id":2189928467,"lat":25.74603,"lon":71.39729,"name":"Barmer","type":"station"},{"id":802251157,"lat":30.37104,"lon":75.5499,"name":"Barnala","type":"station"},{"id":1010433994,"lat":30.88993,"lon":77.08239,"name":"Barog","type":"station"},{"id":345195701,"lat":28.90389,"lon":77.05919,"name":"Barota","type":"station"},{"id":6266157450,"lat":27.44189,"lon":77.14676,"name":"Barsana","type":"station"},{"id":1970584469,"lat":29.38639,"lon":76.23823,"name":"Barsola","type":"station"},{"id":2188670907,"lat":25.17622,"lon":74.93428,"name":"Barundini","type":"station"},{"id":1941915665,"lat":29.36793,"lon":75.88779,"name":"Barwala","type":"station"},{"id":5698863055,"lat":28.46458,"lon":76.98282,"name":"Basai Dhankot","type":"station"},{"id":876044190,"lat":33.5573,"lon":72.23229,"name":"Basal Junction","nameLocal":"بسال جنکشن ریلوے اسٹیشن","type":"station"},{"id":11622061375,"lat":33.54915,"lon":72.25774,"name":"Basal Sharif Railway Station","nameLocal":"بسال شریف ریلوے اسٹیشن","type":"station"},{"id":2643724865,"lat":26.7486,"lon":77.5434,"name":"Baseri","type":"station"},{"id":1078323241,"lat":33.17025,"lon":75.03894,"name":"Basindahar","type":"station"},{"id":1371874400,"lat":33.17013,"lon":75.03895,"name":"Basindahar","type":"station"},{"id":5228663607,"lat":30.57666,"lon":73.83989,"name":"Basirpur","nameLocal":"بصیر پور","type":"station"},{"id":4762298488,"lat":26.22303,"lon":73.01084,"name":"Basni","type":"station"},{"id":2187740308,"lat":26.84111,"lon":76.04774,"name":"Bassi","type":"station"},{"id":2188670908,"lat":25.02617,"lon":74.76731,"name":"Bassi Berisal","type":"station"},{"id":2402795791,"lat":30.68962,"lon":76.41035,"name":"Bassi Pathanam","type":"station"},{"id":13316926495,"lat":30.25068,"lon":70.65464,"name":"Basti Laghar","type":"station"},{"id":13356535308,"lat":30.78571,"lon":74.16164,"name":"Basti Qutab","nameLocal":"بستی قطب","type":"station"},{"id":12723659561,"lat":29.6183,"lon":71.56006,"name":"Basti Shahnal","nameLocal":"بستی شاہ نال ریلوے اسٹیشن","type":"station"},{"id":1947268451,"lat":27.1503,"lon":76.57584,"name":"Baswa","type":"station"},{"id":1038912570,"lat":28.38595,"lon":77.31344,"name":"Bata Chowk","type":"station"},{"id":719052264,"lat":31.82141,"lon":75.19455,"name":"Batala Junction","type":"station"},{"id":6384825780,"lat":31.8593,"lon":75.23093,"name":"Batala Sugar Mills","type":"station"},{"id":6361793219,"lat":30.19808,"lon":75.00454,"name":"Bathinda Cantt.","type":"station"},{"id":841999098,"lat":30.21276,"lon":74.93308,"name":"Bathinda Junction","type":"station"},{"id":2410174116,"lat":28.07009,"lon":76.5725,"name":"Bawal","type":"station"},{"id":1950504084,"lat":28.93896,"lon":76.03301,"name":"Bawani Khera","type":"station"},{"id":1483254968,"lat":26.91605,"lon":77.29642,"name":"Bayana Junction","type":"station"},{"id":2189928468,"lat":25.89725,"lon":71.76809,"name":"Baytu","type":"station"},{"id":345195782,"lat":29.61341,"lon":76.9655,"name":"Bazida Jatan","type":"station"},{"id":3602063875,"lat":31.52028,"lon":75.29134,"name":"Beas Junction","type":"station"},{"id":355629622,"lat":26.10706,"lon":74.31284,"name":"Beawar","type":"station"},{"id":566248643,"lat":23.78787,"lon":73.53519,"name":"Bechhiwara","type":"station"},{"id":1947353911,"lat":27.4539,"lon":77.20951,"name":"Bedham","type":"station"},{"id":13301120582,"lat":27.591,"lon":68.82786,"name":"Begmanji","nameLocal":"بیگ مانجی","type":"station"},{"id":9575871374,"lat":32.46311,"lon":74.28386,"name":"Begowala Ghartal","type":"station"},{"id":12834745144,"lat":31.41244,"lon":71.02288,"name":"Behal","nameLocal":"بہل","type":"station"},{"id":11630690599,"lat":28.93138,"lon":76.30862,"name":"Behlba","type":"station"},{"id":1944315282,"lat":24.96687,"lon":73.91192,"name":"Bejnal","type":"station"},{"id":253252090,"lat":30.26945,"lon":66.93507,"name":"Beleli","nameLocal":"بیلیلی","type":"station"},{"id":1316070985,"lat":31.41674,"lon":76.83439,"name":"Beri Barmana","type":"station"},{"id":355629235,"lat":26.99139,"lon":74.56129,"name":"Besroli","type":"station"},{"id":7112559007,"lat":24.06508,"lon":71.61553,"name":"Bhabhar","type":"station"},{"id":1943635631,"lat":25.73315,"lon":71.00132,"name":"Bhachhbar","type":"station"},{"id":6254464334,"lat":24.78809,"lon":77.41253,"name":"Bhadora Jagir","type":"station"},{"id":2189861648,"lat":26.2508,"lon":73.01453,"name":"Bhagat Ki Kothi","type":"station"},{"id":1469514719,"lat":27.67718,"lon":75.72105,"name":"Bhagega","type":"station"},{"id":6334653355,"lat":30.45206,"lon":74.40173,"name":"Bhagsar","type":"station"},{"id":6058725857,"lat":31.60894,"lon":74.86434,"name":"Bhagtanwala","type":"station"},{"id":2188190134,"lat":25.40807,"lon":73.3545,"name":"Bhagwanpura","type":"station"},{"id":6331716316,"lat":29.34361,"lon":73.86201,"name":"Bhagwansar","type":"station"},{"id":345195574,"lat":29.752,"lon":76.95553,"name":"Bhaini Khurd","type":"station"},{"id":2663289264,"lat":29.09525,"lon":76.68009,"name":"Bhainswan","type":"station"},{"id":2977745605,"lat":31.62211,"lon":71.06506,"name":"Bhakkar","nameLocal":"بھکر","type":"station"},{"id":6379165655,"lat":31.48658,"lon":75.23953,"name":"Bhalojala","type":"station"},{"id":1975133224,"lat":32.26479,"lon":72.90625,"name":"Bhalwal","nameLocal":"بھلوال","type":"station"},{"id":2661970260,"lat":29.23911,"lon":76.55074,"name":"Bhambewa","type":"station"},{"id":2187740756,"lat":26.96241,"lon":76.40936,"name":"Bhan Kari","type":"station"},{"id":1970511828,"lat":26.55729,"lon":67.72529,"name":"Bhan Syedabad","nameLocal":"ڀان سعيدآباد","type":"station"},{"id":6716455773,"lat":26.88169,"lon":76.26393,"name":"Bhandana","type":"station"},{"id":2351982758,"lat":23.69178,"lon":72.39074,"name":"Bhandu Motidau","type":"station"},{"id":6372791498,"lat":32.02506,"lon":75.61222,"name":"Bhangala","type":"station"},{"id":4880330847,"lat":29.84506,"lon":77.47438,"name":"Bhankla","type":"station"},{"id":6369983504,"lat":30.85077,"lon":75.70663,"name":"Bhanohad Punjab","type":"station"},{"id":6368006434,"lat":31.29902,"lon":76.42058,"name":"Bhanupali","type":"station"},{"id":1720587134,"lat":26.83312,"lon":75.21735,"name":"Bhanwsa","type":"station"},{"id":6367909366,"lat":31.11062,"lon":76.59288,"name":"Bharatgarh","type":"station"},{"id":938653258,"lat":27.23649,"lon":77.48759,"name":"Bharatpur Junction","type":"station"},{"id":6403409401,"lat":28.11665,"lon":76.58547,"name":"Bharawas","type":"station"},{"id":6373784132,"lat":32.168,"lon":75.95471,"name":"Bharmar","type":"station"},{"id":674500805,"lat":32.27154,"lon":75.61639,"name":"Bharoli Junction","type":"station"},{"id":6369370334,"lat":30.18043,"lon":75.81935,"name":"Bharur","type":"station"},{"id":1947684373,"lat":27.10368,"lon":75.71334,"name":"Bhaton-Ki-Gali","type":"station"},{"id":6259220464,"lat":26.32743,"lon":77.67627,"name":"Bhatpura","type":"station"},{"id":6357453321,"lat":31.0784,"lon":75.77922,"name":"Bhattian","type":"station"},{"id":6412467173,"lat":29.38669,"lon":75.34005,"name":"Bhattu","type":"station"},{"id":1940445069,"lat":28.38351,"lon":75.79733,"name":"Bhavdhari","type":"station"},{"id":2669031285,"lat":30.00234,"lon":73.2529,"name":"Bhawalnagar","nameLocal":"بہاولنگر","type":"station"},{"id":521573847,"lat":24.41929,"lon":75.83028,"name":"Bhawani Mandi","type":"station"},{"id":811425118,"lat":26.22547,"lon":73.61701,"name":"Bhawi","type":"station"},{"id":1943845988,"lat":25.12071,"lon":72.38482,"name":"Bheempura","type":"station"},{"id":2188190135,"lat":25.82389,"lon":73.71718,"name":"Bhesana","type":"station"},{"id":1947132913,"lat":27.06546,"lon":75.30409,"name":"Bheslana","type":"station"},{"id":1941801976,"lat":26.80576,"lon":72.78844,"name":"Bhikamkor","type":"station"},{"id":355747666,"lat":24.19442,"lon":72.00934,"name":"Bhildi Junction","type":"station"},{"id":2188670909,"lat":25.34518,"lon":74.6315,"name":"Bhilwara","type":"station"},{"id":2189395907,"lat":24.7525,"lon":73.92247,"name":"Bhimal","type":"station"},{"id":2188367340,"lat":24.59583,"lon":72.88683,"name":"Bhimana","type":"station"},{"id":2189928469,"lat":25.89302,"lon":71.88209,"name":"Bhimarlai","type":"station"},{"id":1944914350,"lat":24.52917,"lon":74.17942,"name":"Bhindar","type":"station"},{"id":2188190136,"lat":25.55952,"lon":73.49218,"name":"Bhinwaliya","type":"station"},{"id":13299615869,"lat":26.88895,"lon":68.28361,"name":"Bhiria Road","nameLocal":"بھریا روڈ","type":"station"},{"id":1743191379,"lat":28.82539,"lon":76.144,"name":"Bhiwani City","type":"station"},{"id":1743054667,"lat":28.80057,"lon":76.12449,"name":"Bhiwani Junction","type":"station"},{"id":345195663,"lat":29.18523,"lon":77.00842,"name":"Bhodwal Majri","type":"station"},{"id":2433482217,"lat":31.13023,"lon":74.03572,"name":"Bhoe Asal","nameLocal":"بھوئے آصل","type":"station"},{"id":2532070627,"lat":31.55502,"lon":75.64487,"name":"Bhogpur Sirwal","type":"station"},{"id":1944412408,"lat":25.78885,"lon":74.63447,"name":"Bhojaras","type":"station"},{"id":1429156443,"lat":25.17793,"lon":76.15786,"name":"Bhonra","type":"station"},{"id":6361783549,"lat":30.21011,"lon":75.09528,"name":"Bhucho","nameLocal":"Bhuchu Mandi","type":"station"},{"id":1946324081,"lat":24.64304,"lon":76.95402,"name":"Bhulon","type":"station"},{"id":2189395914,"lat":24.84746,"lon":74.21164,"name":"Bhupalsagar","type":"station"},{"id":867184860,"lat":27.95691,"lon":67.94976,"name":"Bhurgari Station","type":"station"},{"id":790920250,"lat":27.50172,"lon":77.66759,"name":"Bhuteshwar","type":"station"},{"id":6372472585,"lat":31.45253,"lon":75.63594,"name":"Biaspind","type":"station"},{"id":360619620,"lat":26.98091,"lon":74.70371,"name":"Bidiyad","type":"station"},{"id":1940102406,"lat":28.05116,"lon":74.14601,"name":"Bigga","type":"station"},{"id":1944412409,"lat":25.92929,"lon":74.65232,"name":"Bijainagar","type":"station"},{"id":2185619757,"lat":26.18828,"lon":77.29304,"name":"Bijaipur Road","type":"station"},{"id":11613746520,"lat":32.30084,"lon":72.05357,"name":"Bijar Railway Station","nameLocal":"بجار ریلوے اسٹیشن","type":"station"},{"id":1077030424,"lat":33.78952,"lon":75.0757,"name":"Bijbiara","type":"station"},{"id":1946215268,"lat":25.14484,"lon":76.39541,"name":"Bijora","type":"station"},{"id":941132747,"lat":28.53696,"lon":77.05129,"name":"Bijwasan","type":"station"},{"id":6400702882,"lat":27.97312,"lon":73.36962,"name":"Bikaner East","type":"station"},{"id":353853357,"lat":28.01524,"lon":73.31564,"name":"Bikaner Junction","type":"station"},{"id":13364139759,"lat":29.14899,"lon":65.38192,"name":"Bilao","nameLocal":"بیلاو","type":"station"},{"id":811425024,"lat":26.18615,"lon":73.70001,"name":"Bilara","type":"station"},{"id":6370291119,"lat":31.05833,"lon":75.66069,"name":"Bilga","type":"station"},{"id":5164599146,"lat":24.8446,"lon":67.33946,"name":"Bin Qasim","nameLocal":"بن قاسم ریلوے اسٹیشن","type":"station"},{"id":10235556624,"lat":26.51492,"lon":76.36559,"name":"Binauri","type":"station"},{"id":1946937461,"lat":26.92362,"lon":75.65159,"name":"Bindayaka","type":"station"},{"id":2090003651,"lat":29.17449,"lon":73.89657,"name":"Biradhwal","type":"station"},{"id":6712008886,"lat":26.92469,"lon":77.3211,"name":"Birambad","type":"station"},{"id":6300601461,"lat":29.91223,"lon":74.63563,"name":"Birang Khera","type":"station"},{"id":2188308383,"lat":25.17327,"lon":73.19448,"name":"Biroliya","type":"station"},{"id":2185619758,"lat":26.13454,"lon":77.13698,"name":"Birpur","type":"station"},{"id":11613826097,"lat":32.63283,"lon":71.55219,"name":"Biruli Railway Station","nameLocal":"بیٹرولی ریلوے اسٹیشن","type":"station"},{"id":6524026429,"lat":24.49768,"lon":74.78405,"name":"Bisalwas Kalan","type":"station"},{"id":1949476731,"lat":29.27394,"lon":76.32372,"name":"Bishanpura Haryana","type":"station"},{"id":1943845989,"lat":25.44829,"lon":72.57488,"name":"Bishengarh","type":"station"},{"id":1940412120,"lat":28.24192,"lon":75.06079,"name":"Bissau","type":"station"},{"id":1947161456,"lat":27.10984,"lon":76.69577,"name":"Biwai","type":"station"},{"id":2185777594,"lat":23.93685,"lon":76.9083,"name":"Biyavra Rajgarh","type":"station"},{"id":6386089403,"lat":32.55823,"lon":75.06833,"name":"Block Hut Basantar","type":"station"},{"id":2187794615,"lat":26.906,"lon":75.49849,"name":"Bobas","type":"station"},{"id":881651678,"lat":25.89159,"lon":68.91866,"name":"Bobi Road Station","type":"station"},{"id":878018461,"lat":25.32217,"lon":68.2143,"name":"Bolāri","nameLocal":"بھولاری","type":"station"},{"id":6370926299,"lat":31.34214,"lon":75.6563,"name":"Bolinna Doaba","type":"station"},{"id":1943359557,"lat":25.78049,"lon":73.43835,"name":"Bomadra","type":"station"},{"id":6382657246,"lat":31.2431,"lon":74.78221,"name":"Boparai","type":"station"},{"id":7808500442,"lat":28.50761,"lon":77.56374,"name":"Boraki","type":"station"},{"id":1942875700,"lat":27.0284,"lon":74.66995,"name":"Borawar","type":"station"},{"id":2668980904,"lat":30.43143,"lon":67.00703,"name":"Bostan","type":"station"},{"id":1182820256,"lat":28.56396,"lon":77.33411,"name":"Botanical Garden","type":"station"},{"id":13366727509,"lat":28.97448,"lon":61.55205,"name":"Boundary Pillar","nameLocal":"باؤنڈری پلر","type":"station"},{"id":1471775082,"lat":28.96031,"lon":77.68482,"name":"Brahmapuri","type":"station"},{"id":1988513576,"lat":28.61371,"lon":77.14051,"name":"Brar Square","type":"station"},{"id":13306443773,"lat":24.93765,"lon":67.90324,"name":"Braudabad","nameLocal":"براؤدآباد","type":"station"},{"id":1947353914,"lat":27.43915,"lon":77.08995,"name":"Brij Nagar","type":"station"},{"id":10536170070,"lat":26.48371,"lon":67.77032,"name":"Bubak Road","nameLocal":"بوبک روڈ","type":"station"},{"id":11237159676,"lat":26.35356,"lon":68.36558,"name":"Bucheri","nameLocal":"بوچیری","type":"station"},{"id":1951388077,"lat":29.37819,"lon":76.55631,"name":"Budhakhera","type":"station"},{"id":253145577,"lat":25.67473,"lon":68.32901,"name":"Budhapur","nameLocal":"بڈھا پور","type":"station"},{"id":1403203783,"lat":32.44062,"lon":75.43543,"name":"Budhi","type":"station"},{"id":5777586407,"lat":29.92185,"lon":75.54986,"name":"Budhlada","type":"station"},{"id":13301973862,"lat":33.79475,"lon":72.76792,"name":"Budho","nameLocal":"بودھو","type":"station"},{"id":3965125435,"lat":28.99094,"lon":68.00993,"name":"Bukhtiarabad Domki","nameLocal":"بختیار آباد","type":"station"},{"id":6029135970,"lat":30.21796,"lon":74.78294,"name":"Bulluana","type":"station"},{"id":2188691216,"lat":25.40862,"lon":75.65089,"name":"Bundi","type":"station"},{"id":2432186137,"lat":33.82145,"lon":72.58788,"name":"Burhan","nameLocal":"برہان","type":"station"},{"id":2440113843,"lat":31.65855,"lon":73.09841,"name":"Burj","type":"station"},{"id":4898255342,"lat":31.55601,"lon":75.18337,"name":"Butari","type":"station"},{"id":6371575099,"lat":31.08074,"lon":74.89763,"name":"Butewala","type":"station"},{"id":13353568722,"lat":25.52399,"lon":68.3059,"name":"Cadet College Petaro","type":"station"},{"id":4441605693,"lat":30.29267,"lon":73.06541,"name":"Cargo Station Arifwala","type":"station"},{"id":3221954730,"lat":35.45361,"lon":62.39969,"name":"Çemenabat","type":"station"},{"id":5453646586,"lat":28.61588,"lon":77.21228,"name":"Central Secretariat","type":"station"},{"id":2185777595,"lat":24.17714,"lon":77.016,"name":"Chachaura Binaganj","type":"station"},{"id":6566321356,"lat":24.18549,"lon":72.37005,"name":"Chadotar","type":"station"},{"id":13347265847,"lat":34.01007,"lon":71.30395,"name":"Chaghi","nameLocal":"چاغی","type":"station"},{"id":13357282470,"lat":30.38299,"lon":73.48655,"name":"Chah Nor Mohammad","type":"station"},{"id":2445623557,"lat":32.6132,"lon":73.6247,"name":"Chailianwala","type":"station"},{"id":1600322577,"lat":30.04312,"lon":75.81295,"name":"Chajli","type":"station"},{"id":12723596766,"lat":29.94648,"lon":71.32426,"name":"Chak","nameLocal":"چک ریلوے اسٹیشن","type":"station"},{"id":6334659073,"lat":30.43077,"lon":74.17508,"name":"Chak Banwala","type":"station"},{"id":1403124991,"lat":32.47968,"lon":75.30414,"name":"Chak Dayala","type":"station"},{"id":1370810186,"lat":31.57039,"lon":73.18722,"name":"Chak Jhumra Junction Railway Station","nameLocal":"چک جھمرہ جنکشن ریلوے اسٹیشن","type":"station"},{"id":6372793666,"lat":32.06534,"lon":75.61986,"name":"Chak Kalan","type":"station"},{"id":13357282423,"lat":30.42632,"lon":73.59575,"name":"Chak Kambo","nameLocal":"چک کمبو","type":"station"},{"id":2447813886,"lat":32.57241,"lon":73.16257,"name":"Chak Nizam","type":"station"},{"id":6334659072,"lat":30.43398,"lon":74.19396,"name":"Chak Pakhewala","type":"station"},{"id":2433212973,"lat":32.75126,"lon":73.90746,"name":"Chak Pirana","nameLocal":"چک پیرانا ریلوے اسٹیشن","type":"station"},{"id":1078497022,"lat":32.94191,"lon":75.08281,"name":"Chak Rakhwal","type":"station"},{"id":248036851,"lat":33.60092,"lon":73.09645,"name":"Chaklala","nameLocal":"چک لالہ ریلوے اسٹیشن","type":"station"},{"id":2188691221,"lat":26.59274,"lon":75.91063,"name":"Chaksu","type":"station"},{"id":7112559008,"lat":23.93849,"lon":71.59231,"name":"Chalvada","type":"station"},{"id":3955477797,"lat":30.92494,"lon":66.44053,"name":"Chaman","nameLocal":"چمن","type":"station"},{"id":2068421648,"lat":23.7062,"lon":72.10717,"name":"Chanasma","type":"station"},{"id":2188190137,"lat":25.94669,"lon":73.86889,"name":"Chandawal","type":"station"},{"id":2551519799,"lat":30.38421,"lon":74.8939,"name":"Chandbhan","type":"station"},{"id":811412483,"lat":24.93814,"lon":74.629,"name":"Chanderiya Junction","type":"station"},{"id":345322690,"lat":30.72709,"lon":76.88722,"name":"Chandi Mandir","type":"station"},{"id":345195351,"lat":30.70216,"lon":76.82145,"name":"Chandigarh Railway Station","type":"station"},{"id":2351891812,"lat":24.20577,"lon":72.31219,"name":"Chandisar","type":"station"},{"id":2433482220,"lat":31.08478,"lon":73.96434,"name":"Changa Manga","nameLocal":"چھانگا مانگا","type":"station"},{"id":13367800406,"lat":26.44645,"lon":67.81419,"name":"Channa Halt","type":"halt"},{"id":2188691272,"lat":26.49931,"lon":75.92002,"name":"Channani","type":"station"},{"id":1944512709,"lat":29.01033,"lon":75.64707,"name":"Charaud","type":"station"},{"id":355700617,"lat":25.30073,"lon":73.92153,"name":"Charbhuja Road","type":"station"},{"id":6334646022,"lat":30.50191,"lon":74.5804,"name":"Chargwan","type":"station"},{"id":919621830,"lat":28.59937,"lon":76.28056,"name":"Charkhi Dadri","type":"station"},{"id":1973009269,"lat":32.01912,"lon":72.64149,"name":"Charnali","type":"station"},{"id":2671932802,"lat":34.15095,"lon":71.75929,"name":"Charsadda","nameLocal":"چارسدہ","type":"station"},{"id":6188133381,"lat":27.71242,"lon":77.50265,"name":"Chata","type":"station"},{"id":1482901092,"lat":30.86836,"lon":72.3522,"name":"Chatiana Railway Station","nameLocal":"چٹیانہ ریلوے اسٹیشن","type":"station"},{"id":6363140863,"lat":30.86378,"lon":76.58052,"name":"Chatouli","type":"station"},{"id":1991979921,"lat":23.94854,"lon":75.60115,"name":"Chau Mahla","type":"station"},{"id":611926128,"lat":31.55235,"lon":74.30278,"name":"Chauburji","type":"station"},{"id":6370013013,"lat":30.81473,"lon":75.56642,"name":"Chaukiman","type":"station"},{"id":11622200744,"lat":33.51338,"lon":72.3806,"name":"Chauntra Railway Station","nameLocal":"چونترہ ریلوے اسٹیشن","type":"station"},{"id":6699735716,"lat":24.55711,"lon":77.13157,"name":"Chaurakheri","type":"station"},{"id":2188691225,"lat":26.05076,"lon":76.14927,"name":"Chauth-ka-Barwara","type":"station"},{"id":6356912570,"lat":30.75964,"lon":76.12742,"name":"Chawapail","type":"station"},{"id":1778013884,"lat":32.34339,"lon":74.69851,"name":"Chawinda","nameLocal":"چونڈہ","type":"station"},{"id":11787335254,"lat":31.75877,"lon":72.90785,"name":"Chenab Nagar","nameLocal":"چناب نگر","type":"station"},{"id":11619587889,"lat":33.23194,"lon":71.90042,"name":"Chhab","nameLocal":"چھب ریلوے اسٹیشن","type":"station"},{"id":1495210231,"lat":24.6798,"lon":76.85159,"name":"Chhabra Gugor","type":"station"},{"id":1946215269,"lat":25.00936,"lon":76.581,"name":"Chhajawa","type":"station"},{"id":1403203784,"lat":32.46147,"lon":75.35872,"name":"Chhan Arorian","type":"station"},{"id":7112559011,"lat":23.76745,"lon":71.27539,"name":"Chhansara","type":"station"},{"id":2351982762,"lat":24.03349,"lon":72.39997,"name":"Chhapi","type":"station"},{"id":1139246235,"lat":24.03375,"lon":72.39988,"name":"Chhapi Train Station","type":"station"},{"id":13512412253,"lat":28.54139,"lon":77.79954,"name":"Chhaprawat Halt","type":"station"},{"id":6358019163,"lat":31.62221,"lon":74.79477,"name":"Chheharta","type":"station"},{"id":6384826883,"lat":31.90226,"lon":75.27231,"name":"Chhina","type":"station"},{"id":6051237228,"lat":30.36548,"lon":76.00685,"name":"Chhintanwala","type":"station"},{"id":1947684374,"lat":27.30601,"lon":75.58936,"name":"Chhota Gudha","type":"station"},{"id":938735525,"lat":26.55886,"lon":76.80535,"name":"Chhoti Odai","type":"station"},{"id":2433633682,"lat":30.53548,"lon":72.69034,"name":"Chichawatni","type":"station"},{"id":13361876098,"lat":29.79209,"lon":67.45118,"name":"Chidarzai","nameLocal":"چیدارزئی","type":"station"},{"id":6077146664,"lat":31.26265,"lon":75.70687,"name":"Chiheru","type":"station"},{"id":1947268462,"lat":27.20008,"lon":77.66225,"name":"Chiksana","type":"station"},{"id":1942486351,"lat":27.4449,"lon":73.52545,"name":"Chilo","type":"station"},{"id":1973008303,"lat":31.73095,"lon":72.98342,"name":"Chiniot","nameLocal":"چنیوٹ","type":"station"},{"id":6369225912,"lat":31.7228,"lon":76.04832,"name":"Chintpurni Marg","type":"station"},{"id":1762385157,"lat":28.2234,"lon":75.65034,"name":"Chirawa","type":"station"},{"id":3752972781,"lat":29.79976,"lon":72.85806,"name":"Chishtian Sharif Railway Station","type":"station"},{"id":2351906368,"lat":24.26587,"lon":72.48689,"name":"Chitrasani","type":"station"},{"id":811412438,"lat":24.87602,"lon":74.62327,"name":"Chittaurgarh Junction","type":"station"},{"id":2433212971,"lat":32.87961,"lon":73.78563,"name":"Choa Kariala","nameLocal":"چوآ کٹریالہ ریلوے اسٹیشن","type":"station"},{"id":8999686414,"lat":29.89575,"lon":77.73762,"name":"Chodiala","type":"station"},{"id":2130805144,"lat":28.31066,"lon":77.731,"name":"Chola","type":"station"},{"id":1473023954,"lat":28.31103,"lon":77.73091,"name":"Chola","type":"station"},{"id":6372523694,"lat":31.61702,"lon":75.64057,"name":"Cholang","type":"station"},{"id":1947684375,"lat":27.15793,"lon":75.70279,"name":"Chomun Samod","type":"station"},{"id":3019799551,"lat":25.51883,"lon":69.772,"name":"Chor","nameLocal":"چور","type":"station"},{"id":1942875662,"lat":27.15619,"lon":74.35744,"name":"Choti Khatu","type":"station"},{"id":2941394194,"lat":30.21257,"lon":74.13465,"name":"Chuhriwala Dhan","type":"station"},{"id":11623129072,"lat":33.4742,"lon":72.09066,"name":"Chura Sharif Halt","nameLocal":"چُورہ شریف ریلوے اسٹیشن","type":"station"},{"id":1351765247,"lat":31.59254,"lon":76.17128,"name":"Churaru Takarla","type":"station"},{"id":360366353,"lat":28.28886,"lon":74.9664,"name":"Churu Junction","type":"station"},{"id":1369227136,"lat":30.918,"lon":72.41561,"name":"Daban Wala Railway Station","nameLocal":"ڈبانوالہ ریلوے اسٹیشن","type":"station"},{"id":1947145003,"lat":27.88871,"lon":75.94618,"name":"Dabla","type":"station"},{"id":1939750474,"lat":29.54305,"lon":74.19138,"name":"Dabli Rathan","type":"station"},{"id":1946127806,"lat":25.09174,"lon":75.89486,"name":"Dadhdevi","type":"station"},{"id":7572622446,"lat":28.53873,"lon":77.53722,"name":"Dadri","type":"station"},{"id":1970511962,"lat":26.72533,"lon":67.77167,"name":"Dadu","nameLocal":"دادو","type":"station"},{"id":6370111639,"lat":30.82855,"lon":75.06318,"name":"Dagru","type":"station"},{"id":316681502,"lat":26.94451,"lon":75.76611,"name":"Dahar-Ka-Balaji","type":"station"},{"id":9569605285,"lat":28.04565,"lon":69.68772,"name":"Daharki","nameLocal":"ڈھرکی","type":"station"},{"id":1732367527,"lat":28.29084,"lon":76.39172,"name":"Dahina Zainabad","type":"station"},{"id":4936420517,"lat":30.5679,"lon":70.94348,"name":"Daira Din Panah","nameLocal":"دائرہ دین پناہ","type":"station"},{"id":1945761450,"lat":25.14425,"lon":75.86572,"name":"Dakaniya Talav","type":"station"},{"id":1422068068,"lat":23.9489,"lon":75.10592,"name":"Dalauda","type":"station"},{"id":3947848722,"lat":28.89062,"lon":64.4091,"name":"Dalbandin","nameLocal":"دالبندین","type":"station"},{"id":4756584178,"lat":32.28865,"lon":75.75092,"name":"Dalhousie Road","type":"station"},{"id":13361157945,"lat":29.88114,"lon":68.10349,"name":"Dalujal","type":"halt"},{"id":3966714659,"lat":29.09113,"lon":67.97148,"name":"Damboli","nameLocal":"دمبولی","type":"station"},{"id":5054528204,"lat":32.63903,"lon":72.98176,"name":"Dandot Railway Station","type":"station"},{"id":5046122466,"lat":28.41211,"lon":77.64505,"name":"Dankaur","type":"station"},{"id":1450651961,"lat":28.41198,"lon":77.64533,"name":"Dankaur","type":"station"},{"id":2188101099,"lat":26.77479,"lon":75.154,"name":"Dantra","type":"station"},{"id":6346667013,"lat":30.51739,"lon":76.80738,"name":"Dapper","type":"station"},{"id":1256979827,"lat":31.67183,"lon":73.28516,"name":"Dar-ul-Ehsan Railway Station","nameLocal":"دارالاحسان ریلوے اسٹیشن","type":"station"},{"id":1946127808,"lat":24.832,"lon":76.00712,"name":"Dara","type":"station"},{"id":3025146977,"lat":30.15278,"lon":77.1962,"name":"Darazpur","type":"station"},{"id":3972498435,"lat":34.51486,"lon":71.8947,"name":"Dargai","nameLocal":"درگئی","type":"station"},{"id":1482928314,"lat":30.65914,"lon":72.17243,"name":"Darkhana Railway Station","nameLocal":"درکھانا ریلوے اسٹیشن","type":"station"},{"id":11194787979,"lat":31.78559,"lon":71.10881,"name":"Darya Khan","nameLocal":"دریا خان","type":"station"},{"id":3221971699,"lat":36.27488,"lon":62.64223,"name":"Dashkopri","nameLocal":"Daşköpri","type":"station"},{"id":7477176629,"lat":28.69362,"lon":77.54458,"name":"Dasna","type":"station"},{"id":809560543,"lat":31.80846,"lon":75.65801,"name":"Dasuya","type":"station"},{"id":2185619759,"lat":25.73945,"lon":76.6971,"name":"Datarda Kalan","type":"station"},{"id":6292420497,"lat":29.89099,"lon":75.62053,"name":"Datewas","type":"station"},{"id":11615791700,"lat":32.88229,"lon":71.58169,"name":"Daud Khel Junction","nameLocal":"داؤد خیل ریلوے اسٹیشن","type":"station"},{"id":6369239064,"lat":31.77158,"lon":76.00816,"name":"Daulatpur Chauk","type":"station"},{"id":3196185917,"lat":29.44978,"lon":75.88891,"name":"Daulatpur Haryana","type":"station"},{"id":5644181613,"lat":26.45879,"lon":68.32042,"name":"Daur","nameLocal":"دوڑ","type":"station"},{"id":2188135620,"lat":26.3957,"lon":74.61931,"name":"Daurai","type":"station"},{"id":6125521634,"lat":29.12394,"lon":77.70765,"name":"Daurala","type":"station"},{"id":1471711210,"lat":29.04074,"lon":77.70685,"name":"Daurli","type":"station"},{"id":1007156392,"lat":26.90013,"lon":76.3306,"name":"Dausa","type":"station"},{"id":914644353,"lat":28.66712,"lon":77.17119,"name":"Dayabasti","type":"station"},{"id":2189395918,"lat":24.61952,"lon":73.80496,"name":"Debari","type":"station"},{"id":6155363582,"lat":26.61064,"lon":76.31479,"name":"Deedwana","type":"station"},{"id":1947353915,"lat":27.48679,"lon":77.32499,"name":"Deeg","type":"station"},{"id":6187385777,"lat":27.31857,"lon":77.7583,"name":"Deen Dayal Dham","type":"station"},{"id":566277772,"lat":26.89707,"lon":74.31699,"name":"Degana Junction","type":"station"},{"id":6699813725,"lat":25.2986,"lon":75.82287,"name":"Dehit","type":"station"},{"id":913486329,"lat":28.7035,"lon":77.17706,"name":"Delhi Azadpur","type":"station"},{"id":632050796,"lat":28.61171,"lon":77.11566,"name":"Delhi Cantonment","type":"station"},{"id":913095905,"lat":28.66093,"lon":77.22765,"name":"Delhi Junction","type":"station"},{"id":1988513580,"lat":28.66274,"lon":77.19791,"name":"Delhi Kishanganj","type":"station"},{"id":910356438,"lat":28.5822,"lon":77.18621,"name":"Delhi Safdarjang","type":"station"},{"id":915407469,"lat":28.66275,"lon":77.18526,"name":"Delhi Sarai Rohilla","type":"station"},{"id":663759047,"lat":28.67346,"lon":77.29221,"name":"Delhi Shahdara Junction","type":"station"},{"id":1216076123,"lat":29.67959,"lon":77.67089,"name":"Deoband","type":"station"},{"id":2433218363,"lat":32.63282,"lon":74.00538,"name":"Deona Juliani","nameLocal":"دیونہ جلیانی ریلوے اسٹیشن","type":"station"},{"id":1761345723,"lat":28.23676,"lon":74.92078,"name":"Depalsar","type":"station"},{"id":3965034135,"lat":28.37176,"lon":68.3563,"name":"Dera Allah Yar","nameLocal":"ڈیرہ اللہ یار","type":"station"},{"id":1261589014,"lat":32.02491,"lon":75.0142,"name":"Dera Baba Nanak","type":"station"},{"id":13348193813,"lat":30.05098,"lon":70.62301,"name":"Dera Ghazi Khan","nameLocal":"ڈيره غازي خان","type":"station"},{"id":3966714660,"lat":28.54845,"lon":68.2203,"name":"Dera Murad Jamali","nameLocal":"ڈیرہ مراد جمالی","type":"station"},{"id":10270129172,"lat":29.1519,"lon":71.25523,"name":"Dera Nawab Sahib","nameLocal":"ڈیرہ نواب","type":"station"},{"id":1942486352,"lat":27.79064,"lon":73.33874,"name":"Deshnok","type":"station"},{"id":1942486354,"lat":26.84362,"lon":73.88731,"name":"Deswal","type":"station"},{"id":1944412419,"lat":25.00376,"lon":74.64332,"name":"Det","type":"station"},{"id":4096901917,"lat":25.4049,"lon":68.43949,"name":"Detha","nameLocal":"ڈیتھا","type":"station"},{"id":7105216112,"lat":23.96082,"lon":71.59368,"name":"Devgam","type":"station"},{"id":1944315287,"lat":25.52464,"lon":73.90066,"name":"Devgarh Madriya","type":"station"},{"id":2188691230,"lat":26.03182,"lon":76.25406,"name":"Devpura","type":"station"},{"id":8059018054,"lat":31.06565,"lon":73.96829,"name":"DFO office","type":"station"},{"id":1939878671,"lat":29.85965,"lon":74.54187,"name":"Dhaban","type":"station"},{"id":2775029954,"lat":24.81277,"lon":67.50119,"name":"Dhabeji","nameLocal":"داھابیجی","type":"station"},{"id":6007046368,"lat":30.33756,"lon":76.27511,"name":"Dhablan","type":"station"},{"id":3184988384,"lat":29.68739,"lon":76.00629,"name":"Dhamtan Sahib","type":"station"},{"id":7105221836,"lat":24.1466,"lon":71.82593,"name":"Dhanakwada","type":"station"},{"id":2187794617,"lat":26.91843,"lon":75.60547,"name":"Dhanakya","type":"station"},{"id":5929614386,"lat":30.87437,"lon":75.90946,"name":"Dhandarikalan","type":"station"},{"id":2350878015,"lat":24.50367,"lon":72.03251,"name":"Dhanera","type":"station"},{"id":1946127809,"lat":24.98773,"lon":75.93306,"name":"Dhani Kasar","type":"station"},{"id":1941915668,"lat":29.20837,"lon":75.79967,"name":"Dhansu","type":"station"},{"id":1010180792,"lat":30.90033,"lon":77.02364,"name":"Dharampur Himachal","type":"station"},{"id":2188190138,"lat":25.78146,"lon":73.67161,"name":"Dhareshwar","type":"station"},{"id":2351982765,"lat":23.96698,"lon":72.38082,"name":"Dharewada","type":"station"},{"id":2408104526,"lat":31.95157,"lon":75.32408,"name":"Dhariwal","type":"station"},{"id":6699788843,"lat":24.59819,"lon":77.09342,"name":"Dharnoda","type":"station"},{"id":3184988387,"lat":29.63966,"lon":76.05592,"name":"Dharodi","type":"station"},{"id":2433331668,"lat":32.38333,"lon":74.13307,"name":"Dhaunkal","nameLocal":"دھونکل","type":"station"},{"id":316775607,"lat":27.29187,"lon":77.53621,"name":"Dhaurmui Jaghina","type":"station"},{"id":353681709,"lat":26.94677,"lon":72.65282,"name":"Dhelana","type":"station"},{"id":1947268466,"lat":27.32091,"lon":76.6192,"name":"Dhigawara","type":"station"},{"id":2082606881,"lat":31.5019,"lon":75.32741,"name":"Dhilwan","type":"station"},{"id":6717816740,"lat":26.89215,"lon":75.3703,"name":"Dhinda","type":"station"},{"id":1939723044,"lat":28.3609,"lon":73.59856,"name":"Dhirera","type":"station"},{"id":345195495,"lat":30.06642,"lon":76.84444,"name":"Dhirpur","type":"station"},{"id":345195502,"lat":30.01856,"lon":76.84241,"name":"Dhoda Kheri","type":"station"},{"id":6524300906,"lat":23.77097,"lon":75.1036,"name":"Dhodhar","type":"station"},{"id":6372464836,"lat":31.3939,"lon":75.63314,"name":"Dhogri","type":"station"},{"id":345195481,"lat":30.1154,"lon":76.85383,"name":"Dhola Mazra","type":"station"},{"id":13356528892,"lat":30.95006,"lon":74.26359,"name":"Dholan","nameLocal":"ڈھولن","type":"station"},{"id":1939878680,"lat":29.76071,"lon":74.25192,"name":"Dholipal","type":"station"},{"id":1946167337,"lat":24.49244,"lon":75.89072,"name":"Dhuankheri","type":"station"},{"id":345195425,"lat":30.3961,"lon":76.78778,"name":"Dhulkot","type":"station"},{"id":202540706,"lat":30.37237,"lon":75.8679,"name":"Dhuri Junction","type":"station"},{"id":2188671353,"lat":25.4973,"lon":74.58187,"name":"Dhuwala","type":"station"},{"id":1728989454,"lat":27.40612,"lon":74.5578,"name":"Didwana","type":"station"},{"id":1758228541,"lat":28.74151,"lon":76.64007,"name":"Dighal","type":"station"},{"id":1946215271,"lat":25.19547,"lon":76.02757,"name":"Digod","type":"station"},{"id":1934348399,"lat":28.28273,"lon":68.58542,"name":"Dilmurad","nameLocal":"دلمراد","type":"station"},{"id":701576004,"lat":28.67587,"lon":77.32145,"name":"Dilshad Garden","type":"station"},{"id":2433202112,"lat":33.02463,"lon":73.60322,"name":"Dina","nameLocal":"دینہ ریلوے اسٹیشن","type":"station"},{"id":1870222317,"lat":32.1333,"lon":75.46729,"name":"Dina Nagar","type":"station"},{"id":6412491387,"lat":29.46008,"lon":75.26184,"name":"Ding","type":"station"},{"id":3966714663,"lat":29.28657,"lon":67.89618,"name":"Dingra","nameLocal":"دنگرا","type":"station"},{"id":1834544145,"lat":29.18239,"lon":74.88126,"name":"Diplana","type":"station"},{"id":2351906369,"lat":24.23735,"lon":72.1794,"name":"Disa","type":"station"},{"id":345195648,"lat":29.31807,"lon":76.98016,"name":"Diwana","type":"station"},{"id":1941503251,"lat":27.73354,"lon":72.83995,"name":"Diyatra Road","type":"station"},{"id":7112558998,"lat":24.11248,"lon":71.76951,"name":"Diyodar","type":"station"},{"id":10654590058,"lat":28.88033,"lon":76.52375,"name":"Dobh Bhali","type":"station"},{"id":6334688819,"lat":30.846,"lon":74.52425,"name":"Dodh","type":"station"},{"id":2387819090,"lat":28.58006,"lon":75.32328,"name":"Dokwa","type":"station"},{"id":6565672368,"lat":25.45345,"lon":73.93716,"name":"Dolaji Ka Khera","type":"station"},{"id":876095266,"lat":33.55552,"lon":72.18847,"name":"Domel","nameLocal":"دومیل ریلوے اسٹیشن","type":"station"},{"id":303694676,"lat":33.03286,"lon":73.46585,"name":"Domeli Railway Station","nameLocal":"ڈومیلی ریلوے اسٹیشن","type":"station"},{"id":171051476,"lat":30.80385,"lon":76.04368,"name":"Doraha","type":"station"},{"id":13362247803,"lat":29.93983,"lon":67.18789,"name":"Dozan","nameLocal":"دوزن","type":"station"},{"id":3523382867,"lat":24.88632,"lon":67.12619,"name":"Drigh Road","nameLocal":"ڈرگ روڈ","type":"station"},{"id":2387824860,"lat":28.45984,"lon":75.16616,"name":"Dudhwakhara","type":"station"},{"id":2189928470,"lat":25.93576,"lon":72.90412,"name":"Dudia","type":"station"},{"id":6371547209,"lat":31.24134,"lon":75.26598,"name":"Dudwindi","type":"station"},{"id":12745776048,"lat":33.17767,"lon":74.93878,"name":"Dugga","type":"station"},{"id":1372124253,"lat":33.17779,"lon":74.93887,"name":"Dugga","type":"station"},{"id":6202830654,"lat":28.72983,"lon":77.47973,"name":"Duhai","type":"halt"},{"id":1882492132,"lat":30.29401,"lon":76.88643,"name":"Dukheri","type":"station"},{"id":6382628514,"lat":31.49981,"lon":74.909,"name":"Dukhnawaran","type":"station"},{"id":1809800034,"lat":28.40706,"lon":73.65622,"name":"Dulmera","type":"station"},{"id":6684327958,"lat":26.8643,"lon":77.23346,"name":"Dumariya","type":"station"},{"id":2189928471,"lat":25.89574,"lon":72.79747,"name":"Dundara","type":"station"},{"id":1418669386,"lat":27.93888,"lon":75.23721,"name":"Dundlod Mukandgarh","type":"station"},{"id":13355702633,"lat":29.74572,"lon":73.22692,"name":"Dunga Bunga","nameLocal":"ڈونگہ بونگہ","type":"station"},{"id":2189469712,"lat":23.86589,"lon":73.69683,"name":"Dungarpur","type":"station"},{"id":13357960695,"lat":29.80683,"lon":71.72106,"name":"Dunyapur","nameLocal":"دُنیا پُور","type":"station"},{"id":662484598,"lat":28.58937,"lon":77.16939,"name":"Durgabai Deshmukh South Campus","type":"station"},{"id":2188691233,"lat":26.85509,"lon":75.78702,"name":"Durgapura","type":"station"},{"id":6261078265,"lat":25.84504,"lon":76.79465,"name":"Durgapuri","type":"station"},{"id":2433331699,"lat":32.0547,"lon":74.21078,"name":"Eimenabad","nameLocal":"ایمن آباد","type":"station"},{"id":6331496361,"lat":29.44411,"lon":74.65795,"name":"Ellenabad","type":"station"},{"id":1038805019,"lat":28.3701,"lon":77.31492,"name":"Escorts Mujesar","type":"station"},{"id":1370688641,"lat":31.49091,"lon":73.14305,"name":"Faisalabad Dry Port","nameLocal":"فیصل آباد ڈرائی پورٹ","type":"station"},{"id":2188190139,"lat":25.23595,"lon":73.23515,"name":"Falna","type":"station"},{"id":6297939873,"lat":30.19019,"lon":74.57916,"name":"Faqarsar","type":"station"},{"id":2432186134,"lat":33.82676,"lon":72.50359,"name":"Faqirabad","nameLocal":"لارنس پور","type":"station"},{"id":13355360971,"lat":29.46937,"lon":73.03743,"name":"Faqirwali","nameLocal":"فقیر والی","type":"station"},{"id":6187386836,"lat":27.3346,"lon":77.74421,"name":"Farah","type":"station"},{"id":1572649890,"lat":28.41076,"lon":77.30708,"name":"Faridabad","type":"station"},{"id":1834384707,"lat":28.37737,"lon":77.30947,"name":"Faridabad New Town","type":"station"},{"id":1883467581,"lat":30.68265,"lon":74.76209,"name":"Faridkot","type":"station"},{"id":6292584422,"lat":30.67056,"lon":74.76941,"name":"Faridnagar","type":"station"},{"id":13357467568,"lat":29.88532,"lon":72.22141,"name":"Farm Noor Muhammad","nameLocal":"فارم نور محمد","type":"station"},{"id":1973008528,"lat":31.74288,"lon":73.83192,"name":"Farooqabad","type":"station"},{"id":3735985541,"lat":28.46723,"lon":76.82537,"name":"Farrukhnagar","type":"station"},{"id":3064100544,"lat":33.5758,"lon":72.64187,"name":"Fateh Jang Railway Station","nameLocal":"فتح جنگ ریلوے اسٹیشن","type":"station"},{"id":2189395922,"lat":24.81817,"lon":74.09624,"name":"Fateh Nagar","type":"station"},{"id":6684335213,"lat":26.81848,"lon":77.1409,"name":"Fateh Singh Pura","type":"station"},{"id":3260424453,"lat":31.86365,"lon":74.94149,"name":"Fatehgarh Churian","type":"station"},{"id":6363111363,"lat":30.65114,"lon":76.3887,"name":"Fatehgarh Sahib","type":"station"},{"id":13516335354,"lat":28.37676,"lon":77.67505,"name":"Fatehpur Makrandpur","type":"station"},{"id":1940412121,"lat":28.00007,"lon":74.97062,"name":"Fatehpur Shekhawati","type":"station"},{"id":2652093090,"lat":27.09426,"lon":77.67072,"name":"Fatehpur Sikri","type":"station"},{"id":2039592813,"lat":30.0533,"lon":73.86904,"name":"Fatuhi","type":"station"},{"id":720622565,"lat":30.40868,"lon":74.02679,"name":"Fazilka Junction","type":"station"},{"id":13316937436,"lat":29.30131,"lon":70.44517,"name":"Fazilpur Dhandi","nameLocal":"فاضل پور","type":"station"},{"id":597419619,"lat":28.76402,"lon":70.81867,"name":"Feroza","nameLocal":"فیروزہ","type":"station"},{"id":6009456877,"lat":30.88345,"lon":74.8047,"name":"Ferozeshah","type":"station"},{"id":705475691,"lat":30.94166,"lon":74.6173,"name":"Firozpur Cantt. Junction","type":"station"},{"id":720622589,"lat":30.9621,"lon":74.60127,"name":"Firozpur City Junction","type":"station"},{"id":13355360804,"lat":29.19048,"lon":72.85537,"name":"Fort Abbas","nameLocal":"فورٹ عباس","type":"station"},{"id":2189861649,"lat":26.95322,"lon":74.45418,"name":"Gachhipura","type":"station"},{"id":13368860506,"lat":24.84542,"lon":67.42836,"name":"Gaddar","nameLocal":"گڈار","type":"station"},{"id":1940102412,"lat":27.97031,"lon":73.45539,"name":"Gadhwala","type":"station"},{"id":2189928472,"lat":25.74319,"lon":70.64232,"name":"Gadra Road","type":"station"},{"id":11622305363,"lat":33.53879,"lon":72.51599,"name":"Gagan Railway Station","nameLocal":"گگن ریلوے اسٹیشن","type":"station"},{"id":1943635632,"lat":25.71641,"lon":70.77882,"name":"Gagariya","type":"station"},{"id":13357448347,"lat":30.21724,"lon":72.82763,"name":"Gagoo","nameLocal":"گگو","type":"station"},{"id":2188100752,"lat":26.67419,"lon":74.97091,"name":"Gahlota","type":"station"},{"id":1244181238,"lat":32.17733,"lon":73.7629,"name":"Gajar Gola Railway Station","nameLocal":"گاجرگولہ ریلوے اسٹیشن","type":"station"},{"id":1941503012,"lat":27.93577,"lon":73.0614,"name":"Gajner","type":"station"},{"id":1939723045,"lat":29.65799,"lon":73.43751,"name":"Gajsinghpur","type":"station"},{"id":2433331669,"lat":32.30188,"lon":74.15213,"name":"Gakkhar Mandi","nameLocal":"گکھڑ منڈی","type":"station"},{"id":13363811282,"lat":29.59398,"lon":66.27374,"name":"Galangur","nameLocal":"گلنگر","type":"station"},{"id":3188119510,"lat":35.65364,"lon":62.56043,"name":"Galaýmor","type":"station"},{"id":13299615861,"lat":27.33885,"lon":68.54433,"name":"Gambat","nameLocal":"گمبٹ","type":"station"},{"id":1945672645,"lat":24.69357,"lon":74.67049,"name":"Gambhiri Road","type":"station"},{"id":345195671,"lat":29.13153,"lon":77.01109,"name":"Ganaur","type":"station"},{"id":1753726590,"lat":26.8728,"lon":75.79922,"name":"Gandhi Nagar Jaipur","type":"station"},{"id":938736299,"lat":26.46818,"lon":76.72668,"name":"Gangapur City","type":"station"},{"id":1944412410,"lat":25.06114,"lon":74.62515,"name":"Gangarar","type":"station"},{"id":2130805059,"lat":28.28271,"lon":77.75469,"name":"Gangraul","type":"station"},{"id":2551519857,"lat":30.44577,"lon":74.87894,"name":"Gangsar Jaito","type":"station"},{"id":2410174120,"lat":28.4383,"lon":76.93072,"name":"Garhi Harsaru Junction","type":"station"},{"id":6264184603,"lat":26.66923,"lon":77.74581,"name":"Garhi Sandra","type":"station"},{"id":1870222318,"lat":31.22398,"lon":76.13847,"name":"Garhshankar","type":"station"},{"id":7105218422,"lat":23.71976,"lon":71.12509,"name":"Garmadi","type":"station"},{"id":6372599749,"lat":31.77996,"lon":75.65346,"name":"Garna Sahib","type":"station"},{"id":1946167344,"lat":24.27878,"lon":75.68446,"name":"Garot","type":"station"},{"id":13364187769,"lat":28.71394,"lon":63.31756,"name":"Gat","nameLocal":"گاٹ","type":"station"},{"id":6266336827,"lat":27.6127,"lon":76.66131,"name":"Gazika","type":"station"},{"id":2188100753,"lat":26.54221,"lon":74.77773,"name":"Gegal Akhri","type":"station"},{"id":6699842783,"lat":25.20378,"lon":75.165,"name":"Genoli Road","type":"station"},{"id":2636626119,"lat":29.8219,"lon":76.46665,"name":"Geong","type":"station"},{"id":316673866,"lat":26.837,"lon":75.83202,"name":"Getor Jagatpura","type":"station"},{"id":345195380,"lat":30.61029,"lon":76.84827,"name":"Ghagghar","type":"station"},{"id":707547318,"lat":32.50517,"lon":75.21342,"name":"Ghagwal","type":"station"},{"id":6370105259,"lat":30.8227,"lon":75.10932,"name":"Ghalkalan","type":"station"},{"id":6367852201,"lat":31.02656,"lon":76.59189,"name":"Ghanauli","type":"station"},{"id":345195615,"lat":29.54088,"lon":76.96538,"name":"Gharaunda","type":"station"},{"id":13368860471,"lat":24.7909,"lon":67.55538,"name":"Gharo","nameLocal":"گهارو","type":"station"},{"id":3312047592,"lat":31.22327,"lon":74.73305,"name":"Gharyala","type":"station"},{"id":1973007188,"lat":29.5311,"lon":76.14327,"name":"Ghaso","type":"station"},{"id":1946387852,"lat":25.50594,"lon":76.16,"name":"Ghata-Ka-Varana","type":"station"},{"id":1947268469,"lat":27.73639,"lon":76.63037,"name":"Ghatla","type":"station"},{"id":6354716753,"lat":28.65286,"lon":77.42824,"name":"Ghaziabad Junction","type":"station"},{"id":1036372975,"lat":28.67197,"lon":77.41398,"name":"Ghaziabad RRTS","type":"station"},{"id":5737166729,"lat":28.69134,"lon":76.99777,"name":"Ghevra","type":"station"},{"id":8373224122,"lat":34.35162,"lon":61.20458,"name":"Ghorian","nameLocal":"ایستگاه راه آهن غوریان","type":"station"},{"id":1947172061,"lat":27.1852,"lon":76.916,"name":"Ghosrana","type":"station"},{"id":1944878461,"lat":24.8716,"lon":74.53522,"name":"Ghosunda","type":"station"},{"id":8811163719,"lat":27.99407,"lon":69.31342,"name":"Ghotki","nameLocal":"گھوٹکی","type":"station"},{"id":6361762551,"lat":30.31976,"lon":75.4209,"name":"Ghunas","type":"station"},{"id":67173943,"lat":33.30114,"lon":73.26575,"name":"Ghungrila","nameLocal":"گھنگریلہ ریلوے اسٹیشن","type":"station"},{"id":6292578039,"lat":30.61356,"lon":74.80155,"name":"Giani Zail Singh Sandhwan","type":"station"},{"id":1883467665,"lat":30.20126,"lon":74.66213,"name":"Giddarbaha","type":"station"},{"id":6003365679,"lat":31.15304,"lon":75.12478,"name":"Giddarpindi","type":"station"},{"id":13367887494,"lat":25.37902,"lon":68.31767,"name":"Gidu","nameLocal":"گڈو","type":"station"},{"id":8423212826,"lat":24.90881,"lon":67.07841,"name":"Gilani","nameLocal":"گیلانی","type":"station"},{"id":4306718681,"lat":29.7152,"lon":71.47656,"name":"Gilawala","nameLocal":"گیلے والا ریلوے اسٹیشن","type":"station"},{"id":6369277215,"lat":30.84098,"lon":75.84897,"name":"Gill","type":"station"},{"id":2185619760,"lat":25.82727,"lon":76.77372,"name":"Girdharpur","type":"station"},{"id":1940218106,"lat":29.16006,"lon":75.03504,"name":"Gogameri","type":"station"},{"id":2663052813,"lat":29.14079,"lon":76.68969,"name":"Gohana Junction","type":"station"},{"id":6382620885,"lat":31.53274,"lon":74.89938,"name":"Gohlwar Varpal","type":"station"},{"id":1370339991,"lat":31.14269,"lon":72.68381,"name":"Gojra Railway Station","nameLocal":"گوجرہ ریلوے سٹیشن","type":"station"},{"id":1740389320,"lat":28.24675,"lon":76.61765,"name":"Gokulgarh","type":"station"},{"id":2189928473,"lat":25.89179,"lon":71.99989,"name":"Gole","type":"station"},{"id":1883468122,"lat":30.78974,"lon":74.7046,"name":"Golehwala","type":"station"},{"id":5045392851,"lat":32.58365,"lon":72.93515,"name":"Golpur railway statio گول پور ریلوے اسٹیشن","type":"station"},{"id":6422526503,"lat":33.6705,"lon":72.94784,"name":"Golra Sharif Junction","nameLocal":"گولڑہ شریف جنکشن ریلوے اسٹیشن","type":"station"},{"id":2551519765,"lat":30.31878,"lon":74.90971,"name":"Goneana","type":"station"},{"id":1944315288,"lat":25.6415,"lon":73.86728,"name":"Goram Ghat","type":"station"},{"id":348031798,"lat":31.12989,"lon":75.77417,"name":"Goraya","type":"station"},{"id":1423479136,"lat":27.54761,"lon":75.26534,"name":"Goriyan","type":"station"},{"id":3965893621,"lat":27.77706,"lon":68.76266,"name":"Gosarji","nameLocal":"گوسڑجی","type":"station"},{"id":2189862833,"lat":26.65268,"lon":73.73799,"name":"Gotan","type":"station"},{"id":2275305004,"lat":27.52063,"lon":77.46211,"name":"Govardhan","type":"station"},{"id":1947353916,"lat":27.49916,"lon":76.98779,"name":"Govindgarh","type":"station"},{"id":6369377958,"lat":29.99205,"lon":75.80868,"name":"Govindgarh Khokhar","type":"station"},{"id":316683309,"lat":27.24036,"lon":75.64619,"name":"Govindgarh Malikpur","type":"station"},{"id":2188700289,"lat":27.03146,"lon":75.09304,"name":"Govindi Marwar","type":"station"},{"id":2668391459,"lat":31.37072,"lon":75.11013,"name":"Govindwal Sahib","type":"station"},{"id":611921782,"lat":31.56555,"lon":74.31425,"name":"GPO","nameLocal":"جی پی او","type":"station"},{"id":2188700290,"lat":26.95049,"lon":75.12875,"name":"Gudha","type":"station"},{"id":13313374768,"lat":34.22568,"lon":72.01373,"name":"Gujar Garhi","nameLocal":"گجر گڑھی","type":"station"},{"id":2433202104,"lat":33.259,"lon":73.30762,"name":"Gujar Khan","nameLocal":"گوجرخان ریلوے اسٹیشن","type":"station"},{"id":2433331678,"lat":32.19903,"lon":74.18132,"name":"Gujranwala","nameLocal":"گوجرانوالا","type":"station"},{"id":362815866,"lat":32.17659,"lon":74.18761,"name":"Gujranwala","nameLocal":"گوجرانوالہ","type":"station"},{"id":2433331671,"lat":32.24567,"lon":74.16817,"name":"Gujranwala Cantt","nameLocal":"گوجرانوالہ کینٹ","type":"station"},{"id":2418521105,"lat":32.56279,"lon":74.06454,"name":"Gujrat","nameLocal":"گجرات ریلوے اسٹیشن","type":"station"},{"id":13357234344,"lat":30.60327,"lon":73.9128,"name":"Gul Sher","nameLocal":"گل شیر","type":"station"},{"id":360650988,"lat":25.90253,"lon":74.65558,"name":"Gulabpura","type":"station"},{"id":9828930405,"lat":28.58157,"lon":77.80135,"name":"Gulaothi","type":"station"},{"id":5049369446,"lat":28.70379,"lon":77.45552,"name":"Guldhar","type":"station"},{"id":2357205851,"lat":32.00477,"lon":76.15132,"name":"Guler","type":"station"},{"id":13310823022,"lat":30.63083,"lon":66.63601,"name":"Gulistan","nameLocal":"گلستان","type":"station"},{"id":1010284302,"lat":30.84221,"lon":76.97177,"name":"Gumman","type":"station"},{"id":747164424,"lat":24.6409,"lon":77.31429,"name":"Guna Junction","type":"station"},{"id":3742358257,"lat":32.41714,"lon":74.61089,"name":"Gunna Kalan RS","type":"station"},{"id":719052307,"lat":32.04363,"lon":75.41994,"name":"Gurdaspur","type":"station"},{"id":1774430929,"lat":28.48909,"lon":77.01116,"name":"Gurgaon","type":"station"},{"id":2188190140,"lat":25.99745,"lon":73.9548,"name":"Guriya","type":"station"},{"id":811412560,"lat":25.27124,"lon":75.8864,"name":"Gurla Junction","type":"station"},{"id":8999711344,"lat":25.28946,"lon":75.88503,"name":"Gurla W","type":"station"},{"id":6028271807,"lat":29.85871,"lon":75.80387,"name":"Gurney","type":"station"},{"id":6000343250,"lat":30.71519,"lon":74.4005,"name":"Guruhar Sahai","type":"station"},{"id":6300586298,"lat":30.13882,"lon":74.88634,"name":"Gurusar Sahnewala","type":"station"},{"id":6358029900,"lat":31.60602,"lon":74.68409,"name":"Gurusar Sutlani","type":"station"},{"id":2433508562,"lat":30.95445,"lon":73.74451,"name":"Habib Abad","nameLocal":"حبیب آباد","type":"station"},{"id":3965893623,"lat":27.87231,"lon":68.66138,"name":"Habib Kot Junction","nameLocal":"حبیب کوٹ جنکشن","type":"station"},{"id":11613707922,"lat":32.29714,"lon":72.18066,"name":"Hadali Railway Station","nameLocal":"ہڈالی ریلوے اسٹیشن","type":"station"},{"id":6016332040,"lat":30.34478,"lon":75.49519,"name":"Hadiyaya","type":"station"},{"id":2387819092,"lat":28.53176,"lon":75.26798,"name":"Hadyal","type":"station"},{"id":1244519619,"lat":32.07471,"lon":73.69171,"name":"Hafizabad Railway Station","nameLocal":"حافظ آباد ریلوے اسٹیشن","type":"station"},{"id":8999686369,"lat":28.67253,"lon":77.78645,"name":"Hafizpur","type":"station"},{"id":1934348342,"lat":28.27947,"lon":69.0034,"name":"Haibat Shaheed","nameLocal":"ہیبت شھید","type":"station"},{"id":13367780579,"lat":27.43619,"lon":68.11965,"name":"Haider Bakhsh Jatoi","type":"station"},{"id":13356535358,"lat":30.69864,"lon":74.06937,"name":"Haji Chand","nameLocal":"حاجی چاند","type":"station"},{"id":13354941873,"lat":24.99056,"lon":68.7248,"name":"Hakimani Halt","nameLocal":"حکیمانی ہالٹ","type":"halt"},{"id":6004387271,"lat":31.45599,"lon":75.43324,"name":"Hamira","type":"station"},{"id":1944412411,"lat":25.18748,"lon":74.61758,"name":"Hamirgarh","type":"station"},{"id":1076907403,"lat":34.22256,"lon":74.51216,"name":"Hamre","type":"station"},{"id":1943016470,"lat":29.08813,"lon":75.94745,"name":"Hansi","type":"station"},{"id":4762298487,"lat":29.61171,"lon":74.2936,"name":"Hanumangarh Junction","type":"station"},{"id":360366059,"lat":29.57441,"lon":74.33124,"name":"Hanumangarh Town","type":"station"},{"id":4065521027,"lat":26.06325,"lon":73.00583,"name":"Hanwant","type":"station"},{"id":746435456,"lat":28.73924,"lon":77.77871,"name":"Hapur Junction","type":"station"},{"id":303789888,"lat":30.59839,"lon":72.90684,"name":"Harappa","type":"station"},{"id":4882323306,"lat":31.91445,"lon":74.92596,"name":"Hardorawal","type":"station"},{"id":2447813882,"lat":32.56254,"lon":73.31883,"name":"Haria","type":"station"},{"id":2188190141,"lat":26.01417,"lon":74.0302,"name":"Haripur","type":"station"},{"id":27332128,"lat":33.98467,"lon":72.9285,"name":"Haripur","nameLocal":"ہری پور","type":"station"},{"id":13304432841,"lat":32.4684,"lon":74.10437,"name":"Haripur Band","nameLocal":"ہری پور بند","type":"station"},{"id":1422068276,"lat":24.36309,"lon":74.91901,"name":"Harkia Khal","type":"station"},{"id":353681757,"lat":26.86741,"lon":72.72085,"name":"Harlaya","type":"station"},{"id":3037408238,"lat":30.09996,"lon":67.93508,"name":"Harnai","nameLocal":"ہرنائی","type":"station"},{"id":3753966922,"lat":29.61188,"lon":73.13306,"name":"Haroonabad","nameLocal":"ہارون آباد","type":"station"},{"id":1940412123,"lat":28.56919,"lon":75.4911,"name":"Harpalu","type":"station"},{"id":2357206253,"lat":32.10503,"lon":76.03769,"name":"Harsar Dehri","type":"station"},{"id":1947268475,"lat":27.86525,"lon":76.615,"name":"Harsauli","type":"station"},{"id":2424054019,"lat":33.8268,"lon":72.69908,"name":"‎Hasan Abdal","nameLocal":"حسن ابدال","type":"station"},{"id":3752426111,"lat":29.69704,"lon":72.54989,"name":"Hasilpur Railway Station","type":"station"},{"id":3019798204,"lat":25.50676,"lon":69.67703,"name":"Hasisar Station","type":"station"},{"id":13313406013,"lat":34.38629,"lon":71.91928,"name":"Hathiyan","nameLocal":"ہاتھیان","type":"station"},{"id":2188405286,"lat":26.3656,"lon":74.64933,"name":"Hatundi","type":"station"},{"id":3306883000,"lat":30.45715,"lon":73.67737,"name":"Haveli Wasawewala","nameLocal":"حویلی وساویوالا","type":"station"},{"id":943150544,"lat":34.05181,"lon":73.15766,"name":"Havelian","nameLocal":"حویلیاں","type":"station"},{"id":13301788544,"lat":34.00686,"lon":72.06032,"name":"Hayat Sher Pao Shaheed","nameLocal":"حیات شیر پاؤ شہید","type":"station"},{"id":1988585233,"lat":28.58896,"lon":77.25352,"name":"Hazrat Nizamuddin Junction","type":"station"},{"id":1947172010,"lat":27.23414,"lon":77.37457,"name":"Helak","type":"station"},{"id":2835089156,"lat":33.56755,"lon":75.19212,"name":"Hiller Shahabad","type":"station"},{"id":6051851811,"lat":30.45237,"lon":75.86617,"name":"Himmatana","type":"station"},{"id":3687866075,"lat":29.74792,"lon":75.86455,"name":"Himmatpura","type":"station"},{"id":6358919641,"lat":29.52907,"lon":77.36304,"name":"Hind","type":"station"},{"id":937900550,"lat":26.75579,"lon":77.03148,"name":"Hindaun City","type":"station"},{"id":1795310413,"lat":30.13647,"lon":73.91664,"name":"Hindumalkot","type":"station"},{"id":6239869278,"lat":24.5313,"lon":77.79965,"name":"Hinotia Pipalkhera","type":"station"},{"id":1403124993,"lat":32.48707,"lon":75.26816,"name":"Hira Nagar","type":"station"},{"id":3800133391,"lat":26.88572,"lon":75.32849,"name":"Hirnoda","type":"station"},{"id":3969545499,"lat":29.92963,"lon":67.22666,"name":"Hirok","nameLocal":"ہیروک","type":"station"},{"id":1943016474,"lat":29.15235,"lon":75.72458,"name":"Hisar Junction","type":"station"},{"id":1760973736,"lat":27.8865,"lon":77.38813,"name":"Hodal","type":"station"},{"id":345195841,"lat":28.80158,"lon":77.10248,"name":"Holambi Kalan","type":"station"},{"id":257720799,"lat":31.52433,"lon":75.906,"name":"Hoshiarpur","type":"station"},{"id":4886453213,"lat":30.98789,"lon":74.55448,"name":"Husainiwala","type":"station"},{"id":6371539585,"lat":31.31169,"lon":75.32948,"name":"Husainpur","type":"station"},{"id":13355077951,"lat":25.31978,"lon":68.40969,"name":"Husri Halt","nameLocal":"ہوسری","type":"station"},{"id":925243283,"lat":25.3811,"lon":68.3734,"name":"Hyderabad","nameLocal":"حیدرآباد","type":"station"},{"id":2853884272,"lat":25.38108,"lon":68.3735,"name":"Hyderabad Railway Station","nameLocal":"حیدرآباد ریلوے اسٹیشن","type":"station"},{"id":1518077945,"lat":23.83623,"lon":73.01146,"name":"Idar","type":"station"},{"id":2185619761,"lat":26.05437,"lon":76.95173,"name":"Ikdori","type":"station"},{"id":1947268476,"lat":27.21159,"lon":77.60833,"name":"Ikran","type":"station"},{"id":1811444172,"lat":28.32009,"lon":76.71885,"name":"Inchhapuri","type":"station"},{"id":6254464359,"lat":25.77793,"lon":77.73862,"name":"Indergarh","type":"station"},{"id":1340476493,"lat":25.72826,"lon":76.23279,"name":"Indragarh Sumerganj Mandi","type":"station"},{"id":11618903239,"lat":33.12744,"lon":71.85077,"name":"Injra","nameLocal":"انجرا ریلوے اسٹیشن","type":"station"},{"id":2351906370,"lat":24.34643,"lon":72.53402,"name":"Iqbal Gadh","type":"station"},{"id":4219672116,"lat":29.87508,"lon":77.80289,"name":"Iqbalpur","type":"station"},{"id":6571007449,"lat":23.88148,"lon":72.06754,"name":"IR","type":"station"},{"id":4316808708,"lat":32.67792,"lon":71.26656,"name":"Isa Khel Railway Station","type":"station"},{"id":13364294079,"lat":28.76726,"lon":62.97368,"name":"Isa Tahir","nameLocal":"عیسیٰ طاہر","type":"station"},{"id":2188691296,"lat":26.17018,"lon":76.03034,"name":"Isarda","type":"station"},{"id":104638370,"lat":33.66354,"lon":73.04722,"name":"Islamabad Railway Station","nameLocal":"اسلام آباد ریلوے اسٹیشن","type":"station"},{"id":2743083594,"lat":28.79975,"lon":76.73995,"name":"Ismaila Haryana","type":"station"},{"id":13364187727,"lat":28.77821,"lon":63.99985,"name":"Ismaili","nameLocal":"اسماعیلی","type":"station"},{"id":2663623456,"lat":29.27836,"lon":76.83666,"name":"Israna","type":"station"},{"id":1010270861,"lat":30.88214,"lon":76.99203,"name":"Jabli","type":"station"},{"id":3965893625,"lat":28.27613,"lon":68.43276,"name":"Jacobabad Junction","nameLocal":"جیکب آباد جنکشن","type":"station"},{"id":1947276265,"lat":27.53968,"lon":76.88088,"name":"Jadoli Ka Bas","type":"station"},{"id":13357960745,"lat":29.85947,"lon":71.74208,"name":"Jafarwala Halt","type":"halt"},{"id":566247524,"lat":23.74025,"lon":73.45378,"name":"Jagabor","type":"station"},{"id":1191193947,"lat":30.13585,"lon":77.24233,"name":"Jagadhri Workshop","type":"station"},{"id":2063141234,"lat":28.32619,"lon":73.4771,"name":"Jagdevwala","type":"station"},{"id":2402795792,"lat":30.80075,"lon":75.4725,"name":"Jagraon","type":"station"},{"id":13357960762,"lat":30.04233,"lon":71.81281,"name":"Jahanian","nameLocal":"جہانیاں","type":"station"},{"id":1950940597,"lat":29.16834,"lon":76.36851,"name":"Jai Jai Wanti","type":"station"},{"id":2189469713,"lat":24.22145,"lon":73.86896,"name":"Jai Samand Road","type":"station"},{"id":1351765251,"lat":31.3499,"lon":76.13352,"name":"Jaijon Doaba","type":"station"},{"id":2552386322,"lat":31.7729,"lon":75.10277,"name":"Jaintipura","type":"station"},{"id":2669084994,"lat":26.92079,"lon":75.78665,"name":"Jaipur Junction","type":"station"},{"id":9789976731,"lat":37.06263,"lon":67.31845,"name":"Jaira Tan","type":"station"},{"id":353681335,"lat":26.91502,"lon":70.92675,"name":"Jaisalmer","type":"station"},{"id":1943635633,"lat":25.7559,"lon":70.35919,"name":"Jaisindar","type":"station"},{"id":1939723046,"lat":29.34531,"lon":73.66219,"name":"Jaitsar","type":"station"},{"id":6299719774,"lat":27.35516,"lon":77.5744,"name":"Jajan Patti","type":"station"},{"id":1941942727,"lat":26.36772,"lon":73.22224,"name":"Jajiwal","type":"station"},{"id":807827199,"lat":29.80308,"lon":75.82079,"name":"Jakhal Junction","type":"station"},{"id":1944896898,"lat":29.20985,"lon":75.57376,"name":"Jakhod Khera","type":"station"},{"id":6384854781,"lat":32.21884,"lon":75.54559,"name":"Jakolari","type":"station"},{"id":13301120590,"lat":25.84615,"lon":68.66455,"name":"Jalal Marri","nameLocal":"جلال مری","type":"station"},{"id":809863808,"lat":30.60746,"lon":74.26917,"name":"Jalalabad","type":"station"},{"id":477127497,"lat":31.30733,"lon":75.6312,"name":"Jalandhar Cantonment Junction","type":"station"},{"id":1849420184,"lat":31.33122,"lon":75.59072,"name":"Jalandhar City Junction","type":"station"},{"id":6699845992,"lat":25.29192,"lon":75.38557,"name":"Jalindri","type":"station"},{"id":2406886912,"lat":31.57771,"lon":74.49487,"name":"Jallo","nameLocal":"جلّو","type":"station"},{"id":355747516,"lat":25.35431,"lon":72.63416,"name":"Jalor","type":"station"},{"id":1942504136,"lat":26.84646,"lon":74.19924,"name":"Jalsu","type":"station"},{"id":360264006,"lat":28.65001,"lon":77.23768,"name":"Jama Masjid","type":"station"},{"id":3684738310,"lat":29.69986,"lon":75.85687,"name":"Jamalpur Shaikhan","type":"station"},{"id":13314413148,"lat":30.87101,"lon":70.94196,"name":"Jaman Shah","nameLocal":"جمن شاہ","type":"station"},{"id":1244519621,"lat":32.33758,"lon":73.90683,"name":"Jamke Chatha Railway Station","nameLocal":"جامکے چٹھہ ریلوے اسٹیشن","type":"station"},{"id":2669084999,"lat":32.70604,"lon":74.87999,"name":"Jammu Tawi","type":"station"},{"id":13348456937,"lat":29.63842,"lon":70.57725,"name":"Jampur","nameLocal":"جام پور","type":"station"},{"id":13357659939,"lat":29.58118,"lon":71.74532,"name":"Jamraniwah","nameLocal":"جمرانی واہ","type":"station"},{"id":871794851,"lat":25.52401,"lon":69.09532,"name":"Jamrao Station","type":"station"},{"id":2433024865,"lat":34.00732,"lon":71.37805,"name":"Jamrud","nameLocal":"جمرود","type":"station"},{"id":6307512425,"lat":28.24435,"lon":73.38975,"name":"Jamsar","type":"station"},{"id":1369387161,"lat":31.24282,"lon":75.60716,"name":"Jamsher Khas","type":"station"},{"id":6524079128,"lat":24.4068,"lon":74.89291,"name":"Jamuniya Kalan","type":"station"},{"id":1482946575,"lat":30.49533,"lon":72.09369,"name":"Jan Muhammad Wala Railway Station","nameLocal":"جان محمد والا ریلوے اسٹیشن","type":"station"},{"id":3882639533,"lat":33.4402,"lon":72.01133,"name":"Jand Junction","nameLocal":"جنڈ جنکشن ریلوے اسٹیشن","type":"station"},{"id":347671501,"lat":31.58923,"lon":75.05687,"name":"Jandiala","type":"station"},{"id":6382645012,"lat":31.37832,"lon":74.88502,"name":"Jandoke","type":"station"},{"id":13357960799,"lat":30.18315,"lon":71.86818,"name":"Jangal Mariala","nameLocal":"جنگل مڑیالہ","type":"station"},{"id":1482790941,"lat":31.04806,"lon":72.58157,"name":"Janiwala Railway Station","nameLocal":"جانی والہ ریلوے اسٹیشن","type":"station"},{"id":2189928474,"lat":25.82682,"lon":72.33679,"name":"Janiyana","type":"station"},{"id":5419801588,"lat":30.72502,"lon":72.20881,"name":"Jarala","nameLocal":"جڑالہ ریلوے اسٹیشن","type":"station"},{"id":253515843,"lat":31.33541,"lon":73.42487,"name":"Jaranwala","nameLocal":"جڑانوالہ","type":"station"},{"id":6355111175,"lat":29.40348,"lon":77.70507,"name":"Jarauda Nara","type":"station"},{"id":2350878016,"lat":24.58659,"lon":72.06087,"name":"Jari","type":"station"},{"id":2189928475,"lat":25.72143,"lon":71.23074,"name":"Jasai","type":"station"},{"id":2351133768,"lat":24.16824,"lon":71.90905,"name":"Jasali","type":"station"},{"id":2663289268,"lat":29.01842,"lon":76.65476,"name":"Jasia","type":"station"},{"id":840200539,"lat":28.53818,"lon":77.28327,"name":"Jasola Apollo","type":"station"},{"id":6356923133,"lat":30.78477,"lon":76.08057,"name":"Jaspalon","type":"station"},{"id":7900649505,"lat":32.08447,"lon":74.95044,"name":"Jassar","nameLocal":"جسّڑ","type":"station"},{"id":243874860,"lat":30.80013,"lon":75.83211,"name":"Jassowal","type":"station"},{"id":360619472,"lat":27.66763,"lon":74.4429,"name":"Jaswantgarh","type":"station"},{"id":6388606320,"lat":28.37281,"lon":76.79942,"name":"Jataula Jauri Sampka","type":"station"},{"id":1740292314,"lat":28.3301,"lon":76.52129,"name":"Jatusana","type":"station"},{"id":1947161461,"lat":26.86958,"lon":76.21716,"name":"Jatwara","type":"station"},{"id":11613701319,"lat":32.29166,"lon":72.28201,"name":"Jauharabad Railway Station","nameLocal":"جوہرآباد ریلوے اسٹیشن","type":"station"},{"id":2445623584,"lat":32.65606,"lon":73.84057,"name":"Jaurah Karnana","nameLocal":"جوره کرنانا","type":"station"},{"id":1945672652,"lat":24.55849,"lon":74.7652,"name":"Jawad Road","type":"station"},{"id":2188367341,"lat":25.11438,"lon":73.14748,"name":"Jawai Bandh","type":"station"},{"id":3099119837,"lat":32.01617,"lon":76.22661,"name":"Jawalamukhi Road","type":"station"},{"id":2188190142,"lat":25.46306,"lon":73.39685,"name":"Jawali","type":"station"},{"id":2357206464,"lat":32.14214,"lon":76.00451,"name":"Jawanwala Shahr","type":"station"},{"id":2653607928,"lat":33.95833,"lon":72.19715,"name":"Jehangira","nameLocal":"جہانگیرا","type":"station"},{"id":2351133769,"lat":24.32767,"lon":72.03833,"name":"Jenal","type":"station"},{"id":1940412125,"lat":27.73073,"lon":75.20098,"name":"Jerthi Dadhia","type":"station"},{"id":353681421,"lat":27.00006,"lon":71.30654,"name":"Jetha Chandan","type":"station"},{"id":6395812087,"lat":25.82163,"lon":72.48318,"name":"Jethantri","type":"station"},{"id":6418267632,"lat":24.29689,"lon":72.50969,"name":"Jethi","type":"station"},{"id":6361774233,"lat":30.28859,"lon":75.31905,"name":"Jethuke","type":"station"},{"id":6334642962,"lat":30.50912,"lon":74.59979,"name":"Jhabelwali","type":"station"},{"id":1758228413,"lat":28.5934,"lon":76.63877,"name":"Jhajjar Junction","type":"station"},{"id":876095863,"lat":33.63378,"lon":72.33326,"name":"Jhalar","nameLocal":"جھلار","type":"station"},{"id":6699222156,"lat":24.53344,"lon":76.19665,"name":"Jhalarapatan","type":"station"},{"id":6699212130,"lat":24.58033,"lon":76.14648,"name":"Jhalawar City","type":"station"},{"id":1946167348,"lat":24.54212,"lon":75.92035,"name":"Jhalawar Road","type":"station"},{"id":11619651365,"lat":33.29503,"lon":71.89862,"name":"Jhamat","nameLocal":"جھمٹ ریلوے اسٹیشن","type":"station"},{"id":1975084311,"lat":31.26035,"lon":72.32643,"name":"Jhang Sadar","nameLocal":"جھنگ صدر","type":"station"},{"id":6266168829,"lat":27.47525,"lon":77.03522,"name":"Jhareda","type":"station"},{"id":1734408104,"lat":28.50669,"lon":76.37384,"name":"Jharli","type":"station"},{"id":2188405287,"lat":26.1954,"lon":74.70521,"name":"Jharwasaa","type":"station"},{"id":2433212969,"lat":32.92922,"lon":73.72586,"name":"Jhelum","nameLocal":"جہلم ریلوے اسٹیشن","type":"station"},{"id":13306172822,"lat":28.68157,"lon":70.74196,"name":"Jhetha Bhutta","nameLocal":"جھتھا بھٹہ","type":"station"},{"id":360619312,"lat":27.84837,"lon":75.8851,"name":"Jhilo","type":"station"},{"id":13306443774,"lat":25.02506,"lon":68.01325,"name":"Jhimpir","nameLocal":"جھمپیر","type":"station"},{"id":1947161457,"lat":26.85272,"lon":76.1155,"name":"Jhir","type":"station"},{"id":6334691069,"lat":30.80054,"lon":74.48662,"name":"Jhok Tahal Singh","type":"station"},{"id":881651090,"lat":25.96142,"lon":68.88816,"name":"Jhol","type":"station"},{"id":1399054011,"lat":28.10709,"lon":75.39003,"name":"Jhunjhunun","type":"station"},{"id":1940412127,"lat":28.76584,"lon":75.51377,"name":"Jhunpa","type":"station"},{"id":2433398693,"lat":31.3304,"lon":74.26679,"name":"Jia Bagga","nameLocal":"جیا بگا","type":"station"},{"id":1949476708,"lat":29.30982,"lon":76.31764,"name":"Jind City","type":"station"},{"id":1949476711,"lat":29.32961,"lon":76.2895,"name":"Jind Junction","type":"station"},{"id":1943468347,"lat":29.01223,"lon":75.98746,"name":"Jita Kheri","type":"station"},{"id":6573179291,"lat":23.72853,"lon":72.14494,"name":"Jitoda","type":"station"},{"id":6334697367,"lat":30.6565,"lon":74.33987,"name":"Jiwa Arain","type":"station"},{"id":2189861650,"lat":26.28386,"lon":73.02269,"name":"Jodhpur","type":"station"},{"id":6394556196,"lat":26.31277,"lon":73.09303,"name":"Jodhpur Cantt.","type":"station"},{"id":6699989734,"lat":25.07671,"lon":74.82402,"name":"Jodhpuriya","type":"station"},{"id":1941942731,"lat":26.69825,"lon":73.81919,"name":"Jogi Magra","type":"station"},{"id":4781894867,"lat":31.98916,"lon":76.78948,"name":"Joginder Nagar","type":"station"},{"id":6371559095,"lat":31.09466,"lon":75.06303,"name":"Jogiwala","type":"station"},{"id":1510248255,"lat":26.34458,"lon":77.8023,"name":"Jora Alapur","type":"station"},{"id":1940102414,"lat":28.19579,"lon":74.84057,"name":"Juharpura","type":"station"},{"id":1950940599,"lat":29.12117,"lon":76.39551,"name":"Julana","type":"station"},{"id":1852936535,"lat":24.60271,"lon":75.98637,"name":"Julmi","type":"station"},{"id":13306443776,"lat":24.84383,"lon":67.26946,"name":"Jummah Goth","nameLocal":"جمعھ حماہتی","type":"station"},{"id":13353973113,"lat":24.85575,"lon":67.77283,"name":"Jungshahi","nameLocal":"جنگ شاہی","type":"station"},{"id":1007643832,"lat":31.10144,"lon":77.12236,"name":"Jutogh","type":"station"},{"id":13313202753,"lat":34.01842,"lon":71.99272,"name":"Kabul River","nameLocal":"کابل دریا","type":"station"},{"id":2433646751,"lat":30.37371,"lon":72.14319,"name":"Kacha Khuh","nameLocal":"کچہ کھوہ","type":"station"},{"id":6524243522,"lat":23.83994,"lon":75.10244,"name":"Kachnara","type":"station"},{"id":6254188159,"lat":23.87706,"lon":76.86964,"name":"Kachnaria","type":"station"},{"id":6570786735,"lat":23.92093,"lon":72.65919,"name":"Kadarpur","type":"station"},{"id":6565151938,"lat":23.88233,"lon":73.05737,"name":"Kadiyadra","type":"station"},{"id":11622069020,"lat":33.53675,"lon":72.32335,"name":"Kahal Railway Station","nameLocal":"کاہل ریلوے اسٹیشن","type":"station"},{"id":3687991983,"lat":29.83592,"lon":75.74569,"name":"Kahangarh","type":"station"},{"id":251156253,"lat":29.62845,"lon":71.89892,"name":"Kahror Pakka","nameLocal":"کہروڑپکا","type":"station"},{"id":1797001153,"lat":26.30376,"lon":77.61897,"name":"Kailaras","type":"station"},{"id":6260367890,"lat":26.17066,"lon":77.20372,"name":"Kaimarakalan","type":"station"},{"id":1943359559,"lat":25.84745,"lon":73.19518,"name":"Kairla","type":"station"},{"id":6382647721,"lat":31.33599,"lon":74.86874,"name":"Kairon","type":"station"},{"id":2627477139,"lat":29.7931,"lon":76.39803,"name":"Kaithal","type":"station"},{"id":715299160,"lat":33.95314,"lon":74.91353,"name":"Kakapor","type":"station"},{"id":6361722312,"lat":30.36851,"lon":76.09273,"name":"Kakrala","type":"station"},{"id":2125038682,"lat":31.47601,"lon":75.63038,"name":"Kala Bakra","type":"station"},{"id":2433202114,"lat":32.96293,"lon":73.69489,"name":"Kala Gujran","nameLocal":"کالا گُجراں ریلوے اسٹیشن","type":"station"},{"id":9325976857,"lat":31.83235,"lon":74.46102,"name":"Kala Khatai Station","nameLocal":"کالا خطائی اسٹیشن","type":"station"},{"id":4907178055,"lat":31.71973,"lon":74.27352,"name":"Kala Shah Kaku","nameLocal":"کالا شاہ کاکو","type":"station"},{"id":11616206876,"lat":32.9607,"lon":71.53618,"name":"Kalabagh Railway Station","nameLocal":"کالاباغ ریلوے اسٹیشن","type":"station"},{"id":869368220,"lat":26.81125,"lon":68.19723,"name":"Kalahora Station","type":"station"},{"id":1940218108,"lat":29.00671,"lon":75.17192,"name":"Kalana","type":"station"},{"id":1757484927,"lat":28.83366,"lon":76.38648,"name":"Kalanaur Kalan","type":"station"},{"id":13306172821,"lat":29.29439,"lon":71.44494,"name":"Kalanchwala","nameLocal":"کلانچ والا","type":"station"},{"id":571775041,"lat":30.08284,"lon":77.33984,"name":"Kalanour","type":"station"},{"id":6000810023,"lat":29.8344,"lon":74.98027,"name":"Kalanwali","type":"station"},{"id":2629256394,"lat":29.67894,"lon":76.22817,"name":"Kalayat","type":"station"},{"id":1253348418,"lat":31.97458,"lon":73.59935,"name":"Kaleke Railway Station","nameLocal":"کالیکی ریلوے اسٹیشن","type":"station"},{"id":11258198213,"lat":33.43277,"lon":73.22306,"name":"Kaliam Awan","nameLocal":"کلیام آوان ریلوے اسٹیشن","type":"station"},{"id":345332167,"lat":30.83923,"lon":76.93156,"name":"Kalka","type":"station"},{"id":13313374774,"lat":34.24205,"lon":71.9856,"name":"Kalpani","nameLocal":"کلپانی","type":"station"},{"id":4318297699,"lat":32.1525,"lon":71.26502,"name":"Kalur Kot","nameLocal":"کلورکوٹ‎","type":"station"},{"id":2433202113,"lat":33.02399,"lon":73.6588,"name":"Kaluwal","nameLocal":"کالووال ریلوے اسٹیشن","type":"station"},{"id":1939878701,"lat":29.27477,"lon":73.60068,"name":"Kalyankot","type":"station"},{"id":943128037,"lat":30.73069,"lon":72.62859,"name":"Kamalia Station","type":"station"},{"id":2351982768,"lat":23.86264,"lon":72.376,"name":"Kamli","type":"station"},{"id":2433331700,"lat":31.98181,"lon":74.22594,"name":"Kamoke","nameLocal":"کامونکی","type":"station"},{"id":2433376132,"lat":31.40049,"lon":74.30562,"name":"Kana Kacha","nameLocal":"کانا کاچھا","type":"station"},{"id":13363560287,"lat":29.89824,"lon":66.74029,"name":"Kanak","nameLocal":"کانک","type":"station"},{"id":1946937441,"lat":26.9292,"lon":75.70328,"name":"Kanakpura","type":"station"},{"id":1809800522,"lat":28.13944,"lon":73.32792,"name":"Kanasar","type":"station"},{"id":2187740309,"lat":26.84228,"lon":75.95542,"name":"Kanauta","type":"station"},{"id":1008406111,"lat":30.96628,"lon":77.10752,"name":"Kandaghat","type":"station"},{"id":9571833810,"lat":28.25165,"lon":69.1855,"name":"Kandhkot","nameLocal":"كندھ كوٹ","type":"station"},{"id":1215329148,"lat":29.32393,"lon":77.29253,"name":"Kandhla","type":"station"},{"id":1882905169,"lat":32.18463,"lon":75.66944,"name":"Kandrori","type":"station"},{"id":6370337224,"lat":31.12583,"lon":75.21274,"name":"Kang Khurd","type":"station"},{"id":11747114106,"lat":30.75845,"lon":74.12198,"name":"Kanganpur","nameLocal":"کنگنپور","type":"station"},{"id":1261588573,"lat":32.08515,"lon":76.26267,"name":"Kangra","type":"station"},{"id":1522750711,"lat":32.09741,"lon":76.2869,"name":"Kangra Mandir","type":"station"},{"id":1732367655,"lat":28.32143,"lon":76.30192,"name":"Kanina Khas","type":"station"},{"id":943136115,"lat":30.92312,"lon":72.9611,"name":"Kanjwani Station","type":"station"},{"id":6264216128,"lat":26.57189,"lon":77.43763,"name":"Kankret","type":"station"},{"id":1944315291,"lat":25.03417,"lon":73.90511,"name":"Kankroli","type":"station"},{"id":1008275379,"lat":30.99188,"lon":77.11745,"name":"Kanoh","type":"station"},{"id":2189395925,"lat":24.45879,"lon":74.26765,"name":"Kanor","type":"station"},{"id":6571044259,"lat":23.92998,"lon":72.06498,"name":"Kansa","type":"station"},{"id":520485698,"lat":24.78073,"lon":75.98307,"name":"Kanwalpura","type":"station"},{"id":1947145004,"lat":27.58706,"lon":75.67584,"name":"Kanwat","type":"station"},{"id":2189395926,"lat":24.86144,"lon":74.311,"name":"Kapasan","type":"station"},{"id":1946387855,"lat":25.44412,"lon":76.08577,"name":"Kapren","type":"station"},{"id":3783310750,"lat":31.36659,"lon":75.38225,"name":"Kapurthala","type":"station"},{"id":408164895,"lat":24.84378,"lon":67.04102,"name":"Karachi Cantonment","nameLocal":"کراچی چھاؤنی","type":"station"},{"id":539432952,"lat":24.84857,"lon":67.00624,"name":"Karachi City","nameLocal":"کراچی شہر","type":"station"},{"id":1950808152,"lat":29.01417,"lon":76.48255,"name":"Karainthi","type":"station"},{"id":1947166791,"lat":27.12313,"lon":76.7786,"name":"Karanpura","type":"station"},{"id":2185777596,"lat":23.8095,"lon":76.81414,"name":"Karanwas","type":"station"},{"id":2351891832,"lat":24.22157,"lon":72.45714,"name":"Karjoda","type":"station"},{"id":2372269781,"lat":29.69512,"lon":76.96983,"name":"Karnal","type":"station"},{"id":6403406625,"lat":28.13387,"lon":76.59033,"name":"Karnawas New Grain Market","type":"station"},{"id":13348193602,"lat":31.21881,"lon":70.96362,"name":"Karor","nameLocal":"کروڑ","type":"station"},{"id":1682140689,"lat":29.39129,"lon":76.73129,"name":"Karsindhu","type":"station"},{"id":567473876,"lat":31.43292,"lon":75.49184,"name":"Kartarpur","type":"station"},{"id":1935923497,"lat":28.43862,"lon":69.58346,"name":"Kashmor","nameLocal":"کشمور","type":"station"},{"id":2433633685,"lat":30.4904,"lon":72.53645,"name":"Kassowal","type":"station"},{"id":1883468149,"lat":30.86952,"lon":74.66565,"name":"Kasu Begu","type":"station"},{"id":13356172443,"lat":31.12214,"lon":74.43867,"name":"Kasur Bypass","type":"station"},{"id":11747086748,"lat":31.11789,"lon":74.44267,"name":"Kasur Junction","nameLocal":"قصور جنکشن","type":"station"},{"id":13346752117,"lat":34.04943,"lon":71.25096,"name":"Kata Kushta","nameLocal":"کٹا کشتہ","type":"station"},{"id":6348909494,"lat":31.02201,"lon":77.10352,"name":"Kathleeghat","type":"station"},{"id":1403124995,"lat":32.39811,"lon":75.55069,"name":"Kathua","type":"station"},{"id":6057263259,"lat":31.72887,"lon":75.01577,"name":"Kathunangal","type":"station"},{"id":1737506350,"lat":28.13334,"lon":76.3441,"name":"Kathuwas","type":"station"},{"id":4317541033,"lat":32.29127,"lon":72.43128,"name":"Katimar","type":"station"},{"id":6292479238,"lat":30.15874,"lon":74.99986,"name":"Kattar Singh Wala","type":"station"},{"id":6010960061,"lat":30.41537,"lon":76.51794,"name":"Kauli","type":"station"},{"id":6361725303,"lat":30.36936,"lon":75.93914,"name":"Kaulseri","type":"station"},{"id":2189928476,"lat":25.87073,"lon":71.54812,"name":"Kavas","type":"station"},{"id":1940412130,"lat":28.101,"lon":74.99365,"name":"Kayamsar","type":"station"},{"id":6348028112,"lat":27.01675,"lon":77.32973,"name":"Kela Devi","type":"station"},{"id":2188367342,"lat":24.85659,"lon":73.07198,"name":"Keshavganj","type":"station"},{"id":1946324100,"lat":24.72903,"lon":76.78914,"name":"Kesholi","type":"station"},{"id":1946387883,"lat":25.32345,"lon":75.93738,"name":"Keshorai Patan","type":"station"},{"id":6570763256,"lat":23.82698,"lon":72.62827,"name":"Kesimpa","type":"station"},{"id":3047562521,"lat":30.26544,"lon":76.93384,"name":"Kesri","type":"station"},{"id":1939723048,"lat":29.95092,"lon":73.61926,"name":"Kesri Singhpur","type":"station"},{"id":1947145005,"lat":27.53002,"lon":75.64845,"name":"Khachera","type":"station"},{"id":1469440407,"lat":25.72893,"lon":71.12796,"name":"Khadeen","type":"station"},{"id":6379179298,"lat":31.41582,"lon":75.11657,"name":"Khadur Sahib","type":"station"},{"id":6334686148,"lat":30.90323,"lon":74.55209,"name":"Khai Phemeki","type":"station"},{"id":13301973742,"lat":33.90022,"lon":72.22628,"name":"Khairabad Kund","nameLocal":"خیرآباد کنڈ","type":"station"},{"id":9573605888,"lat":27.52049,"lon":68.73831,"name":"Khairpur","nameLocal":"خیرپور","type":"station"},{"id":1947268477,"lat":27.79783,"lon":76.64175,"name":"Khairthal","type":"station"},{"id":2185643919,"lat":25.5605,"lon":77.61693,"name":"Khajuri","type":"station"},{"id":1942486357,"lat":26.92334,"lon":73.86119,"name":"Khajwana","type":"station"},{"id":6263258205,"lat":28.27532,"lon":76.67836,"name":"Khalilpur","type":"station"},{"id":2472250502,"lat":30.80793,"lon":76.3248,"name":"Khamanon","type":"station"},{"id":1730416896,"lat":25.55595,"lon":73.866,"name":"Khamil Ghat","type":"station"},{"id":7991978803,"lat":29.26594,"lon":61.20128,"name":"Khan Muhammad Chah","nameLocal":"ایستگاه راه آهن خان محمد چاہ","type":"station"},{"id":8999708488,"lat":29.94591,"lon":77.5613,"name":"Khanalampura West","type":"station"},{"id":1947132915,"lat":26.95266,"lon":75.27958,"name":"Khandel","type":"station"},{"id":1373822932,"lat":30.30974,"lon":71.9298,"name":"Khanewal Junction Railway Station","nameLocal":"خانیوال جنکشن ریلوے اسٹیشن","type":"station"},{"id":347408470,"lat":30.70878,"lon":76.22349,"name":"Khanna","type":"station"},{"id":13367800409,"lat":25.74894,"lon":68.29423,"name":"Khanot","nameLocal":"خاڻوٺ","type":"station"},{"id":3339002293,"lat":28.64013,"lon":70.64941,"name":"Khanpur","nameLocal":"خان پور","type":"station"},{"id":6403596775,"lat":27.90923,"lon":76.59144,"name":"Khanpur Ahir","type":"station"},{"id":4111630991,"lat":32.41186,"lon":71.45478,"name":"Khanqah Sirajia","nameLocal":"خانقاہ سراجیہ","type":"station"},{"id":6565672139,"lat":25.35002,"lon":73.94398,"name":"Khara Kameri","type":"station"},{"id":1432140896,"lat":30.72667,"lon":76.63622,"name":"Kharar","type":"station"},{"id":2743084748,"lat":28.83134,"lon":76.68106,"name":"Kharawar","type":"station"},{"id":1078322684,"lat":33.38755,"lon":75.14045,"name":"Khari","type":"station"},{"id":12731148845,"lat":33.38711,"lon":75.14082,"name":"Khari","type":"station"},{"id":1372570985,"lat":33.38777,"lon":75.14052,"name":"Khari","type":"station"},{"id":2189861984,"lat":26.6128,"lon":73.68969,"name":"Kharia Khangarh","type":"station"},{"id":2417418752,"lat":32.8157,"lon":73.85606,"name":"Kharian","nameLocal":"کھاریاں ریلوے اسٹیشن","type":"station"},{"id":2417432437,"lat":32.77349,"lon":73.88998,"name":"Kharian Cantt","nameLocal":"کھاریاں چھاؤنی ریلوے اسٹیشن","type":"station"},{"id":10846185363,"lat":28.90821,"lon":76.42505,"name":"Kharkhara","type":"station"},{"id":6202830456,"lat":28.84167,"lon":77.73611,"name":"Kharkhauda","type":"station"},{"id":1943156278,"lat":26.20423,"lon":74.42608,"name":"Kharwa","type":"station"},{"id":8245773251,"lat":24.41709,"lon":73.81167,"name":"Kharwa Chanda","type":"station"},{"id":6058630995,"lat":31.6124,"lon":74.72851,"name":"Khasa","type":"station"},{"id":8957670072,"lat":28.20441,"lon":61.19073,"name":"Khash","nameLocal":"ایستگاه راه آهن خاش","type":"station"},{"id":13355702622,"lat":29.67134,"lon":73.17469,"name":"Khatan","nameLocal":"کھاٹن","type":"station"},{"id":5734107807,"lat":29.27386,"lon":77.73746,"name":"Khatauli","type":"station"},{"id":13355077865,"lat":25.24269,"lon":68.44465,"name":"Khathar","nameLocal":"کھاتر","type":"station"},{"id":2187740310,"lat":26.83612,"lon":75.89107,"name":"Khatipura","type":"station"},{"id":6370502937,"lat":31.16424,"lon":76.03028,"name":"Khatkarkalan Jhandaji","type":"station"},{"id":6298013422,"lat":30.00854,"lon":73.84876,"name":"Khatlabana","type":"station"},{"id":11619071198,"lat":33.17253,"lon":71.86363,"name":"Khattakabad","nameLocal":"خٹک آباد ریلوے اسٹیشن","type":"station"},{"id":1942875677,"lat":27.11531,"lon":74.33102,"name":"Khatu","type":"station"},{"id":2068719207,"lat":24.02974,"lon":73.04152,"name":"Khed Brahma","type":"station"},{"id":2189861651,"lat":26.75888,"lon":74.0143,"name":"Kheduli","type":"station"},{"id":928023337,"lat":28.8714,"lon":77.28896,"name":"Khekra","type":"station"},{"id":720630409,"lat":31.13978,"lon":74.55346,"name":"Khem Karan","type":"station"},{"id":6571021211,"lat":24.17599,"lon":71.97491,"name":"Khemana","type":"station"},{"id":2189395929,"lat":24.69289,"lon":73.84608,"name":"Khemli","type":"station"},{"id":345199448,"lat":28.76969,"lon":77.11586,"name":"Khera Kalan","type":"station"},{"id":2189861652,"lat":26.42823,"lon":73.39,"name":"Kheri Salwa","type":"station"},{"id":1947172011,"lat":27.2003,"lon":77.03714,"name":"Kherli","type":"station"},{"id":6565738227,"lat":24.571,"lon":74.06943,"name":"Kheroda","type":"station"},{"id":7231988723,"lat":32.64081,"lon":73.00951,"name":"Khewra","nameLocal":"کھیوڑہ","type":"station"},{"id":7943620444,"lat":32.6477,"lon":73.00835,"name":"Khewra Salt Mines","type":"station"},{"id":6334579396,"lat":27.55431,"lon":72.59596,"name":"Khidrat","type":"station"},{"id":2188190144,"lat":25.29749,"lon":73.27781,"name":"Khimel","type":"station"},{"id":1910026284,"lat":29.34607,"lon":74.71761,"name":"Khinaniyan","type":"station"},{"id":2185619762,"lat":25.92139,"lon":76.85822,"name":"Khojeepura","type":"station"},{"id":1372378992,"lat":31.35947,"lon":75.46917,"name":"Khojewala","type":"station"},{"id":353854806,"lat":25.69988,"lon":70.19518,"name":"Khokhrapar","nameLocal":"کھوکھراپار","type":"station"},{"id":2185643925,"lat":25.31234,"lon":77.57994,"name":"Khonker","type":"station"},{"id":1737506522,"lat":28.18851,"lon":76.50218,"name":"Khori","type":"station"},{"id":13361307157,"lat":30.22365,"lon":67.57837,"name":"Khost","nameLocal":"خوست","type":"station"},{"id":6054523827,"lat":31.74386,"lon":75.64884,"name":"Khuda Kurala","type":"station"},{"id":10316608112,"lat":26.64176,"lon":67.74417,"name":"Khudabad","nameLocal":"خدﺁباد","type":"station"},{"id":3315155019,"lat":30.99402,"lon":74.27695,"name":"Khudian Khas","nameLocal":"کھوڈیاں خاص","type":"station"},{"id":2941394196,"lat":30.30519,"lon":74.07833,"name":"Khui Khera","type":"station"},{"id":2650054073,"lat":29.39996,"lon":76.90686,"name":"Khukrana","type":"station"},{"id":13367800408,"lat":25.95673,"lon":68.1877,"name":"Khuman","nameLocal":"کھومان","type":"station"},{"id":1942875681,"lat":27.27799,"lon":74.49272,"name":"Khunkhuna","type":"station"},{"id":10235556628,"lat":26.5164,"lon":76.65907,"name":"Khuntla","type":"station"},{"id":348469810,"lat":31.42569,"lon":75.72369,"name":"Khurdpur","type":"station"},{"id":8428564183,"lat":28.20737,"lon":77.81851,"name":"Khurja Juction","type":"station"},{"id":1473940647,"lat":28.20661,"lon":77.81972,"name":"Khurja Junction","type":"station"},{"id":11613691149,"lat":32.29866,"lon":72.34253,"name":"Khushab Railway Station","nameLocal":"خوشاب ریلوے سٹیشن","type":"station"},{"id":13314222868,"lat":33.47323,"lon":71.87045,"name":"Khushal Garh","nameLocal":"خوشحال گڑھ","type":"station"},{"id":2432160532,"lat":34.00944,"lon":71.93883,"name":"Khushhal","nameLocal":"خوشحال","type":"station"},{"id":13357282306,"lat":30.51203,"lon":73.75734,"name":"Kila Dewa Singh","nameLocal":"قلعہ دیوا سنگھ","type":"station"},{"id":2201318413,"lat":30.75885,"lon":75.82672,"name":"Kila Raipur","type":"station"},