[{"id":333165842,"lat":46.46454,"lon":28.95604,"name":"111 Km","type":"station"},{"id":6939277762,"lat":47.69023,"lon":29.56096,"name":"1329 км","type":"halt"},{"id":2292925224,"lat":45.83315,"lon":28.60019,"name":"208 Km","type":"station"},{"id":1210715124,"lat":46.359,"lon":28.89897,"name":"Abaclia","type":"station"},{"id":10169288686,"lat":47.45523,"lon":20.55333,"name":"Abádszalók","type":"station"},{"id":3378759575,"lat":47.9795,"lon":29.26227,"name":"Abamelіkove","nameLocal":"Абамелікове","type":"station"},{"id":3149753896,"lat":47.31447,"lon":22.37997,"name":"Abrami","type":"station"},{"id":2606863217,"lat":47.32088,"lon":22.25458,"name":"Abrămuț","type":"halt"},{"id":3715615983,"lat":46.27994,"lon":23.05945,"name":"Abrud","type":"station"},{"id":3149713144,"lat":47.52698,"lon":22.77506,"name":"Acâș","type":"station"},{"id":3166638669,"lat":46.47323,"lon":24.63346,"name":"Acățari","type":"station"},{"id":2667599761,"lat":45.81581,"lon":23.86747,"name":"Aciliu","type":"halt"},{"id":6284319930,"lat":46.29384,"lon":22.43436,"name":"Aciuța","type":"station"},{"id":9885061071,"lat":44.92128,"lon":25.59647,"name":"Adânca Hm","type":"station"},{"id":3120858417,"lat":46.09838,"lon":27.19219,"name":"Adjud","type":"station"},{"id":9337642827,"lat":44.56903,"lon":26.0753,"name":"Aeroport Henri Coandă","type":"station"},{"id":3144209871,"lat":44.03135,"lon":23.52501,"name":"Afumați","type":"station"},{"id":3020912478,"lat":45.07655,"lon":21.70275,"name":"Agadici h.","type":"station"},{"id":2727391029,"lat":46.06862,"lon":24.18913,"name":"Agârbiciu","type":"halt"},{"id":9481153370,"lat":47.77638,"lon":22.42914,"name":"Ágerdőmajor","type":"station"},{"id":3122425185,"lat":46.86563,"lon":23.27817,"name":"Aghireș","type":"station"},{"id":2104323180,"lat":46.87332,"lon":23.24713,"name":"Aghireș hc","type":"station"},{"id":2228856079,"lat":44.08952,"lon":28.62439,"name":"Agigea Ecluză Hm.","type":"station"},{"id":648952125,"lat":44.1269,"lon":28.63484,"name":"Agigea Nord","type":"station"},{"id":1686084681,"lat":46.31264,"lon":23.73503,"name":"Aiud","type":"station"},{"id":260396172,"lat":46.05625,"lon":23.57696,"name":"Alba Iulia","type":"station"},{"id":11807336788,"lat":47.04021,"lon":22.35576,"name":"Aleșd","type":"station"},{"id":635769926,"lat":47.80735,"lon":28.06526,"name":"Alexăndreni","type":"station"},{"id":775583732,"lat":43.96451,"lon":25.32521,"name":"Alexandria","type":"station"},{"id":775583873,"lat":43.97442,"lon":25.30996,"name":"Alexandria Nord","type":"station"},{"id":3152832065,"lat":44.68617,"lon":26.70134,"name":"Alexeni","type":"station"},{"id":2425732600,"lat":45.79036,"lon":29.188,"name":"Aliaga","nameLocal":"Аліяга","type":"station"},{"id":11541062685,"lat":45.07311,"lon":20.95686,"name":"Alibunar","nameLocal":"Алибунар","type":"station"},{"id":1866307734,"lat":44.43467,"lon":23.69797,"name":"Almăj","type":"halt"},{"id":3684829726,"lat":45.92703,"lon":24.46673,"name":"Alțâna","type":"station"},{"id":9521454763,"lat":44.8502,"lon":20.34554,"name":"Altina","nameLocal":"Алтина","type":"halt"},{"id":2145451016,"lat":46.90016,"lon":24.82368,"name":"Aluniș Mureș","type":"station"},{"id":2727346695,"lat":44.98704,"lon":23.82549,"name":"Alunu","type":"station"},{"id":13578005763,"lat":44.98661,"lon":23.24629,"name":"Amaradia","type":"station"},{"id":9481638134,"lat":47.8522,"lon":20.40233,"name":"Andornaktálya","type":"halt"},{"id":3152828930,"lat":44.58024,"lon":27.14804,"name":"Andrășești","type":"station"},{"id":775583778,"lat":44.3231,"lon":25.64654,"name":"Anghelești Hc.","type":"halt"},{"id":2239803648,"lat":45.08953,"lon":21.85226,"name":"Anina","type":"station"},{"id":11102602387,"lat":44.95876,"lon":25.44219,"name":"Aninoasa Hm","type":"station"},{"id":1924092089,"lat":47.76802,"lon":23.18766,"name":"Apa","type":"station"},{"id":497138634,"lat":47.58408,"lon":21.65587,"name":"Apafa","type":"station"},{"id":2252375754,"lat":46.79153,"lon":23.74265,"name":"Apahida","type":"station"},{"id":3122756171,"lat":46.81525,"lon":23.75812,"name":"Apahida h","type":"halt"},{"id":2820175652,"lat":45.95247,"lon":25.53603,"name":"Apața","type":"station"},{"id":347635120,"lat":46.17518,"lon":20.58064,"name":"Apátfalva","type":"station"},{"id":1285005859,"lat":45.87848,"lon":23.83274,"name":"Apoldu de Jos","type":"station"},{"id":1285002033,"lat":45.85279,"lon":23.8043,"name":"Apoldu de Sus","type":"station"},{"id":9553124517,"lat":46.18952,"lon":21.32508,"name":"Arad","type":"station"},{"id":3137142082,"lat":46.19982,"lon":21.27614,"name":"Arad Vest","type":"station"},{"id":8304924402,"lat":46.14473,"lon":21.33509,"name":"Aradu Nou","type":"station"},{"id":6631915899,"lat":46.07525,"lon":20.96827,"name":"Aranca","type":"halt"},{"id":2669196602,"lat":44.45377,"lon":24.25711,"name":"Arcești","type":"station"},{"id":8358621922,"lat":47.76122,"lon":25.46927,"name":"Argel","type":"station"},{"id":2104456224,"lat":45.27623,"lon":25.11559,"name":"Argeșel","type":"station"},{"id":3123945787,"lat":47.38183,"lon":25.32071,"name":"Argestru","type":"station"},{"id":3152797890,"lat":44.72886,"lon":26.56325,"name":"Armășești","type":"station"},{"id":3123705479,"lat":45.19673,"lon":22.30935,"name":"Armeniș","type":"station"},{"id":1843922824,"lat":45.78406,"lon":24.61163,"name":"Arpaș","type":"station"},{"id":2011619143,"lat":45.99706,"lon":29.4202,"name":"Artsyz","nameLocal":"Арциз","type":"station"},{"id":3122959347,"lat":46.43433,"lon":26.38781,"name":"Asău","type":"station"},{"id":775583788,"lat":44.1361,"lon":25.06531,"name":"Atârnați","type":"station"},{"id":2821081025,"lat":46.1967,"lon":24.47463,"name":"Ațel","type":"station"},{"id":2667589992,"lat":45.78932,"lon":24.17649,"name":"Atelier Zona h","type":"halt"},{"id":232106009,"lat":46.04741,"lon":25.54502,"name":"Augustin","type":"station"},{"id":2667568455,"lat":45.73209,"lon":24.37423,"name":"Avrig","type":"station"},{"id":10113393172,"lat":45.445,"lon":25.55264,"name":"Azuga","type":"station"},{"id":1849041394,"lat":44.89221,"lon":28.70614,"name":"Babadag","type":"station"},{"id":2669213310,"lat":44.95933,"lon":24.23873,"name":"Băbeni","type":"station"},{"id":1827860778,"lat":47.29691,"lon":23.39361,"name":"Băbuțeni","type":"station"},{"id":9908258141,"lat":46.56556,"lon":26.89456,"name":"Bacău","type":"station"},{"id":13145176915,"lat":45.79526,"lon":23.00083,"name":"Băcia hm","type":"station"},{"id":10992252379,"lat":46.78708,"lon":23.52729,"name":"Baciu Triaj","type":"station"},{"id":1828422772,"lat":44.08316,"lon":21.18011,"name":"Bagrdan","nameLocal":"Багрдан","type":"station"},{"id":286263026,"lat":47.32921,"lon":28.08378,"name":"Bahmut","type":"station"},{"id":3160083518,"lat":46.38273,"lon":24.489,"name":"Bahnea","type":"station"},{"id":3144469017,"lat":44.72835,"lon":28.68367,"name":"Baia Dobrogea","type":"station"},{"id":7484127154,"lat":47.64706,"lon":23.55212,"name":"Baia Mare","type":"station"},{"id":2614135476,"lat":45.05522,"lon":24.69443,"name":"Băiculești","type":"station"},{"id":2670410124,"lat":45.53585,"lon":23.01731,"name":"Băiești","type":"halt"},{"id":3123661520,"lat":45.91158,"lon":21.17011,"name":"Băile Călacea","type":"station"},{"id":10731450470,"lat":44.86266,"lon":22.38797,"name":"Băile Herculane","type":"station"},{"id":3120840724,"lat":45.10068,"lon":26.70203,"name":"Băile Sărata Monteoru","type":"station"},{"id":249102593,"lat":46.15092,"lon":25.86049,"name":"Băile Tușnad Hm","type":"station"},{"id":3144212864,"lat":44.03347,"lon":23.34897,"name":"Băilești","type":"station"},{"id":1065129426,"lat":47.98854,"lon":22.08341,"name":"Baktalórántháza","type":"station"},{"id":775583865,"lat":44.3562,"lon":24.96285,"name":"Balaci Hm","type":"station"},{"id":2657763952,"lat":43.94768,"lon":25.93045,"name":"Bălănoaia","type":"station"},{"id":3160901052,"lat":46.40685,"lon":24.69977,"name":"Bălăușeri","type":"station"},{"id":1994473849,"lat":47.29702,"lon":22.52353,"name":"Balc","type":"halt"},{"id":1359425567,"lat":46.15689,"lon":26.98904,"name":"Bâlca","type":"station"},{"id":2234157091,"lat":44.6206,"lon":25.7816,"name":"Bâldana","type":"station"},{"id":648865949,"lat":45.32544,"lon":27.9067,"name":"Baldovinești","type":"station"},{"id":3150443026,"lat":45.79671,"lon":21.86386,"name":"Balinț","type":"station"},{"id":2269118652,"lat":47.77153,"lon":21.84881,"name":"Balkány","type":"station"},{"id":13392777607,"lat":47.6137,"lon":21.34774,"name":"Balmazújváros","type":"station"},{"id":3123774688,"lat":44.61822,"lon":22.80122,"name":"Balota","type":"station"},{"id":251660798,"lat":44.5906,"lon":26.09874,"name":"Balotești","type":"station"},{"id":483309506,"lat":44.33995,"lon":24.1155,"name":"Balș","type":"station"},{"id":331338052,"lat":47.87438,"lon":29.62497,"name":"Balta","nameLocal":"Балта","type":"station"},{"id":3123683681,"lat":45.3826,"lon":22.2338,"name":"Balta Sărată","type":"station"},{"id":2292203131,"lat":46.83877,"lon":28.95113,"name":"Bălțați","type":"station"},{"id":3146000205,"lat":46.69023,"lon":27.64288,"name":"Bălteni","type":"station"},{"id":549216811,"lat":44.45397,"lon":24.52128,"name":"Bălteni Olt","type":"station"},{"id":1255157563,"lat":47.76108,"lon":27.91001,"name":"Bălți Oraș","type":"station"},{"id":1436455683,"lat":47.78611,"lon":27.92598,"name":"Bălți-Slobozia","type":"station"},{"id":1837487743,"lat":45.05578,"lon":21.01626,"name":"Banatski Karlovac","nameLocal":"Банатски Карловац","type":"station"},{"id":1829565388,"lat":45.72635,"lon":20.32,"name":"Banatsko Milosevo","nameLocal":"Банатско Милошево","type":"station"},{"id":1837485233,"lat":44.97637,"lon":20.78566,"name":"Banatsko Novo Selo","nameLocal":"Банатско Ново Село","type":"station"},{"id":3145970381,"lat":46.33552,"lon":27.79136,"name":"Banca","type":"station"},{"id":12199371098,"lat":44.05196,"lon":26.046,"name":"Băneasa Giurgiu","type":"station"},{"id":3152748650,"lat":44.73745,"lon":25.56927,"name":"Bănești","type":"station"},{"id":2204998863,"lat":45.35466,"lon":21.88963,"name":"Bănila Câlnic","type":"halt"},{"id":775583852,"lat":44.29721,"lon":23.85872,"name":"Banu Mărăcine","type":"station"},{"id":2669013257,"lat":46.0908,"lon":23.59922,"name":"Bărăbanț","type":"station"},{"id":648922589,"lat":44.41998,"lon":27.69689,"name":"Bărăganu","type":"station"},{"id":8100077739,"lat":47.29974,"lon":21.23531,"name":"Báránd","type":"station"},{"id":2715782535,"lat":44.8718,"lon":23.51143,"name":"Bărbătești","type":"station"},{"id":575156968,"lat":45.40206,"lon":27.98827,"name":"Barboși","type":"station"},{"id":8242410996,"lat":45.38522,"lon":28.01846,"name":"Barboşi Port","type":"station"},{"id":8198131926,"lat":45.40457,"lon":27.95816,"name":"Barboși Triaj","type":"station"},{"id":3152796806,"lat":44.72177,"lon":26.60232,"name":"Bărbulești","type":"halt"},{"id":534653252,"lat":45.76844,"lon":27.4751,"name":"Barcea","type":"station"},{"id":2727377489,"lat":45.83143,"lon":22.94863,"name":"Bârcea Mică","type":"station"},{"id":13431251135,"lat":47.21529,"lon":24.75093,"name":"Bârgău h","type":"halt"},{"id":1798708566,"lat":46.21503,"lon":27.67325,"name":"Bârlad","type":"station"},{"id":312170635,"lat":47.013,"lon":27.5696,"name":"Bârnova","type":"station"},{"id":534110598,"lat":45.66257,"lon":25.57457,"name":"Bartolomeu","type":"station"},{"id":2670413560,"lat":45.47496,"lon":23.14493,"name":"Baru Mare","type":"station"},{"id":2669006058,"lat":46.10218,"lon":21.99708,"name":"Bârzava","type":"station"},{"id":10253045044,"lat":46.10363,"lon":21.97285,"name":"Bârzava Nouă","type":"station"},{"id":3146007268,"lat":46.74423,"lon":27.58791,"name":"Bârzești","type":"halt"},{"id":836083540,"lat":46.32721,"lon":28.98394,"name":"Basarabeasca","type":"station"},{"id":648949709,"lat":44.17151,"lon":28.41838,"name":"Basarabi","type":"station"},{"id":3151269778,"lat":44.89544,"lon":24.82118,"name":"Bascov","type":"station"},{"id":3150242083,"lat":46.72394,"lon":21.76769,"name":"Batăr","type":"station"},{"id":7866120111,"lat":46.28199,"lon":21.00415,"name":"Battonya","type":"station"},{"id":242745476,"lat":46.05624,"lon":22.04568,"name":"Bătuța","type":"station"},{"id":2235454255,"lat":47.17671,"lon":24.18214,"name":"Beclean pe Someș","type":"station"},{"id":243075554,"lat":46.15346,"lon":25.18513,"name":"Beia","type":"station"},{"id":5117215202,"lat":46.66158,"lon":22.36066,"name":"Beiuș","type":"station"},{"id":1065130899,"lat":46.66988,"lon":21.08118,"name":"Békéscsaba","type":"station"},{"id":1259198900,"lat":48.05573,"lon":20.34069,"name":"Bélapátfalva","type":"station"},{"id":1997309748,"lat":47.29773,"lon":27.08172,"name":"Belcești","type":"station"},{"id":6140811391,"lat":44.79363,"lon":20.45313,"name":"Belgrade Center","nameLocal":"Београд центар","type":"station"},{"id":234435679,"lat":45.74441,"lon":21.7634,"name":"Belinț","type":"station"},{"id":1017799865,"lat":46.82714,"lon":29.47141,"name":"Bender-1","type":"station"},{"id":7986590398,"lat":46.8429,"lon":29.47593,"name":"Bendery-2","nameLocal":"Bender-2","type":"station"},{"id":1807854438,"lat":47.40691,"lon":23.2908,"name":"Benesat","type":"station"},{"id":3684829727,"lat":45.95922,"lon":24.49377,"name":"Benești","type":"station"},{"id":2310292661,"lat":44.99023,"lon":23.87353,"name":"Berbești","type":"station"},{"id":3158241733,"lat":45.27828,"lon":26.67487,"name":"Berca","type":"station"},{"id":2272592816,"lat":47.51567,"lon":26.02052,"name":"Berchișești","type":"station"},{"id":2073415772,"lat":45.7743,"lon":21.01107,"name":"Beregsău","type":"station"},{"id":337738774,"lat":46.63461,"lon":20.27272,"name":"Berekhát","type":"halt"},{"id":10968027734,"lat":48.24233,"lon":20.668,"name":"Berente-Rendező","type":"station"},{"id":2291502555,"lat":47.23135,"lon":27.80154,"name":"Berești","type":"station"},{"id":3145923537,"lat":46.08315,"lon":27.89126,"name":"Berești","type":"station"},{"id":13479431899,"lat":46.10764,"lon":27.88172,"name":"Beresti Tunel","type":"halt"},{"id":628589425,"lat":47.21219,"lon":21.53229,"name":"Berettyóújfalu","type":"station"},{"id":1770679254,"lat":46.23035,"lon":29.20603,"name":"Berezyne","nameLocal":"Березине","type":"station"},{"id":2104333947,"lat":45.97504,"lon":27.43917,"name":"Berheci","type":"station"},{"id":3020799964,"lat":45.4185,"lon":21.63269,"name":"Berzovia","type":"station"},{"id":10712758569,"lat":45.3711,"lon":24.29509,"name":"Betel","type":"halt"},{"id":566713047,"lat":44.27124,"lon":24.96852,"name":"Beuca","type":"station"},{"id":13578104727,"lat":44.77874,"lon":23.50062,"name":"Bibești","type":"station"},{"id":1828226122,"lat":46.9085,"lon":26.09876,"name":"Bicaz","type":"station"},{"id":1065130592,"lat":46.6598,"lon":21.17953,"name":"Bicere","type":"station"},{"id":12613121888,"lat":47.39944,"lon":24.38292,"name":"Bichigiu h","type":"halt"},{"id":1236621991,"lat":46.10037,"lon":25.84692,"name":"Bicsadu Oltului","type":"station"},{"id":12585339657,"lat":46.10033,"lon":25.84708,"name":"Bicsadu Oltului Hm.","type":"station"},{"id":1996155406,"lat":47.15662,"lon":21.91236,"name":"Biharia","type":"station"},{"id":628589426,"lat":47.13546,"lon":21.72191,"name":"Biharkeresztes","type":"station"},{"id":1065130136,"lat":47.20877,"lon":21.22178,"name":"Biharnagybajom","type":"station"},{"id":3137198400,"lat":45.88356,"lon":20.9492,"name":"Biled","type":"station"},{"id":9907723653,"lat":47.31679,"lon":27.38562,"name":"Biserica Larga Jijia h","type":"halt"},{"id":2152912967,"lat":46.96062,"lon":24.90851,"name":"Bistra Mureșului","type":"station"},{"id":3159972372,"lat":47.18288,"lon":24.80558,"name":"Bistrița Bârgăului","type":"station"},{"id":8000510760,"lat":46.94069,"lon":26.28171,"name":"Bistrița Neamț","type":"halt"},{"id":9551692413,"lat":47.13265,"lon":24.48387,"name":"Bistrița Nord","type":"station"},{"id":9520492339,"lat":47.91419,"lon":25.65603,"name":"Bivolăria","type":"halt"},{"id":3149622375,"lat":47.34166,"lon":23.60288,"name":"Bizușa","type":"halt"},{"id":346153505,"lat":46.17611,"lon":23.90897,"name":"Blaj","type":"station"},{"id":2668420670,"lat":45.96667,"lon":23.44026,"name":"Blandiana","type":"station"},{"id":9543595552,"lat":44.98651,"lon":26.01602,"name":"Blejoi","type":"station"},{"id":3120839492,"lat":45.2095,"lon":26.92875,"name":"Boboc Hm.","type":"station"},{"id":1829557609,"lat":45.76122,"lon":20.2855,"name":"Bocar","nameLocal":"Бочар","type":"station"},{"id":259406480,"lat":47.73159,"lon":24.33504,"name":"Bocicoel","type":"halt"},{"id":879178567,"lat":47.95743,"lon":24.02333,"name":"Bocicoi","type":"station"},{"id":3020912472,"lat":45.37705,"lon":21.70867,"name":"Bocșa Română","type":"halt"},{"id":3150254102,"lat":46.4392,"lon":21.96505,"name":"Bocsig","type":"station"},{"id":13436268803,"lat":45.75895,"lon":25.60438,"name":"Bod","type":"station"},{"id":3123635569,"lat":45.94452,"lon":25.84303,"name":"Bodoc","type":"station"},{"id":1065130633,"lat":48.17575,"lon":21.35442,"name":"Bodrogkeresztúr","type":"station"},{"id":3137210115,"lat":46.12554,"lon":21.1966,"name":"Bodrogu Nou","type":"halt"},{"id":3144144673,"lat":45.6767,"lon":21.7956,"name":"Boldur","type":"halt"},{"id":1065130058,"lat":48.22321,"lon":20.79055,"name":"Boldva","type":"station"},{"id":3122763669,"lat":46.92516,"lon":23.78512,"name":"Bonțida","type":"station"},{"id":11541687783,"lat":44.07314,"lon":22.10283,"name":"Bor","nameLocal":"Бор","type":"station"},{"id":4457140268,"lat":44.05992,"lon":22.1252,"name":"Bor teretna","nameLocal":"Бор теретна","type":"station"},{"id":1141881800,"lat":47.27414,"lon":22.94311,"name":"Borla","type":"station"},{"id":2614135474,"lat":44.94122,"lon":24.77247,"name":"Borlești-Argeș","type":"station"},{"id":1633177258,"lat":45.82525,"lon":26.01065,"name":"Boroșneu Mare","type":"station"},{"id":5117366253,"lat":47.65569,"lon":24.61322,"name":"Borșa","type":"station"},{"id":3378766455,"lat":47.86628,"lon":29.49349,"name":"Borshchi","nameLocal":"Борщі","type":"station"},{"id":3123020503,"lat":46.22167,"lon":26.85522,"name":"Borzești Bacău","type":"station"},{"id":3122839815,"lat":46.97024,"lon":24.9327,"name":"Borzia","type":"station"},{"id":306568964,"lat":47.82516,"lon":22.93728,"name":"Botiz","type":"station"},{"id":1243304538,"lat":47.75302,"lon":26.64432,"name":"Botoșani","type":"station"},{"id":8021246307,"lat":46.13659,"lon":22.78256,"name":"Brad","type":"station"},{"id":2617997694,"lat":45.75408,"lon":25.24875,"name":"Brădet Hm","type":"halt"},{"id":12120509875,"lat":44.81345,"lon":24.9157,"name":"Bradu de Sus","type":"station"},{"id":9244693114,"lat":45.28141,"lon":27.95565,"name":"Brăila","type":"station"},{"id":2205762610,"lat":46.88051,"lon":22.91983,"name":"Brăișoru","type":"station"},{"id":3152808198,"lat":44.47754,"lon":27.36875,"name":"Brâncoveni Hc.","type":"halt"},{"id":3124167629,"lat":44.45808,"lon":26.35789,"name":"Brănești","type":"station"},{"id":224105286,"lat":44.45964,"lon":26.33486,"name":"Brănești Sat","type":"halt"},{"id":7807754433,"lat":45.43807,"lon":27.83404,"name":"Braniștea","type":"station"},{"id":9289175505,"lat":45.66121,"lon":25.61358,"name":"Brașov","type":"station"},{"id":9896843484,"lat":45.6681,"lon":25.64957,"name":"Brașov Triaj","type":"station"},{"id":9904547141,"lat":44.91349,"lon":25.82114,"name":"Brătășanca hc","type":"halt"},{"id":10713108825,"lat":46.92881,"lon":22.6029,"name":"Bratca","type":"station"},{"id":7944355309,"lat":46.17389,"lon":24.41413,"name":"Bratei","type":"halt"},{"id":1633175828,"lat":45.84259,"lon":26.07168,"name":"Brateș","type":"station"},{"id":7748192638,"lat":48.13906,"lon":27.38907,"name":"Brătușeni","type":"station"},{"id":3120812929,"lat":44.86294,"lon":26.02701,"name":"Brazi","type":"station"},{"id":1612107890,"lat":45.17287,"lon":25.6856,"name":"Breaza","type":"station"},{"id":3120794034,"lat":45.21496,"lon":25.64824,"name":"Breaza Nord","type":"station"},{"id":3124127198,"lat":45.428,"lon":21.97864,"name":"Brebu","type":"station"},{"id":3158284474,"lat":46.04556,"lon":26.29586,"name":"Brețcu","type":"station"},{"id":2670406769,"lat":45.65292,"lon":22.99633,"name":"Bretea Streiului","type":"station"},{"id":2381014730,"lat":44.48408,"lon":21.82163,"name":"Brodica","nameLocal":"Бродица","type":"station"},{"id":13431271717,"lat":47.95736,"lon":26.45583,"name":"Broscăuţi","type":"halt"},{"id":3152832491,"lat":44.6684,"lon":26.76903,"name":"Broșteni","type":"station"},{"id":2025242436,"lat":47.76184,"lon":26.44172,"name":"Bucecea","type":"station"},{"id":534652757,"lat":45.66053,"lon":27.52866,"name":"Bucești hc","type":"station"},{"id":8693785589,"lat":44.48046,"lon":26.01456,"name":"Bucharest Sorting Station","nameLocal":"București Triaj","type":"station"},{"id":2292177576,"lat":47.18739,"lon":28.457,"name":"Bucovăț","type":"station"},{"id":2614135475,"lat":45.01527,"lon":24.96614,"name":"Bucșenești","type":"station"},{"id":3152837945,"lat":44.60561,"lon":27.4829,"name":"Bucu","type":"station"},{"id":13247684141,"lat":44.4851,"lon":26.07407,"name":"București Băneasa","type":"station"},{"id":467467582,"lat":44.45041,"lon":26.06743,"name":"București Basarab","type":"station"},{"id":255388736,"lat":44.44871,"lon":26.14049,"name":"București Obor","type":"station"},{"id":13121238957,"lat":44.36546,"lon":26.09128,"name":"București Progresu","type":"station"},{"id":2871134997,"lat":44.42479,"lon":26.22509,"name":"București Sud Gr. Călători","type":"station"},{"id":6541182036,"lat":44.43459,"lon":26.18473,"name":"București Titan Sud","type":"station"},{"id":13249512578,"lat":44.42722,"lon":25.9678,"name":"București Vest","type":"station"},{"id":775583901,"lat":44.47566,"lon":26.01545,"name":"Bucureștii Noi","type":"station"},{"id":3120804410,"lat":44.96356,"lon":25.92562,"name":"Buda","type":"station"},{"id":3120905822,"lat":47.21782,"lon":27.22061,"name":"Budăi","type":"halt"},{"id":3144432221,"lat":44.23971,"lon":26.46624,"name":"Budești","type":"station"},{"id":2724129349,"lat":45.02124,"lon":23.39833,"name":"Budieni","type":"halt"},{"id":2084955836,"lat":45.68201,"lon":25.81355,"name":"Budila","type":"station"},{"id":248286493,"lat":44.5641,"lon":25.95728,"name":"Buftea","type":"station"},{"id":3146007319,"lat":46.79694,"lon":27.56003,"name":"Buhăiești","type":"station"},{"id":3158573917,"lat":46.70908,"lon":26.70467,"name":"Buhuși","type":"station"},{"id":11286564785,"lat":45.14616,"lon":24.37585,"name":"Bujoreni Vâlcea","type":"station"},{"id":506540045,"lat":47.86989,"lon":20.68536,"name":"Bükkábrány","type":"station"},{"id":1303002081,"lat":46.88926,"lon":29.29033,"name":"Bulboaca","type":"station"},{"id":3122388828,"lat":46.93371,"lon":22.6622,"name":"Bulz","type":"station"},{"id":3123854911,"lat":45.15606,"lon":23.37669,"name":"Bumbești","type":"station"},{"id":3149644707,"lat":47.66472,"lon":23.42824,"name":"Bușag","type":"station"},{"id":9641838805,"lat":45.41579,"lon":25.53758,"name":"Bușteni","type":"station"},{"id":3122379472,"lat":47.01958,"lon":22.44237,"name":"Butani","type":"station"},{"id":3123797655,"lat":44.58614,"lon":23.35452,"name":"Butoiești","type":"station"},{"id":8481646760,"lat":45.14269,"lon":26.82593,"name":"Buzău","type":"station"},{"id":648896019,"lat":45.16662,"lon":26.7733,"name":"Buzău Nord","type":"station"},{"id":648895277,"lat":45.12133,"lon":26.86871,"name":"Buzău Sud","type":"station"},{"id":8035390719,"lat":45.6577,"lon":21.58132,"name":"Buziaș","type":"station"},{"id":12733193802,"lat":47.15424,"lon":23.8738,"name":"C. C. H. Dej","type":"halt"},{"id":7925370042,"lat":45.05887,"lon":27.15072,"name":"C.A. Rosetti","type":"station"},{"id":10735358773,"lat":43.88998,"lon":20.35616,"name":"Cacak","nameLocal":"Чачак","type":"station"},{"id":3123955018,"lat":47.63868,"lon":25.92996,"name":"Cacica","type":"station"},{"id":3152793494,"lat":44.61023,"lon":26.15755,"name":"Căciulați","type":"station"},{"id":490607682,"lat":45.92252,"lon":28.19289,"name":"Cahul","type":"station"},{"id":1770683290,"lat":46.67579,"lon":29.09568,"name":"Căinari","type":"station"},{"id":2669267222,"lat":45.49116,"lon":24.3023,"name":"Câineni","type":"station"},{"id":3123021579,"lat":46.18645,"lon":26.92992,"name":"Căiuți","type":"station"},{"id":8467912114,"lat":43.99394,"lon":22.92477,"name":"Calafat","type":"station"},{"id":691410870,"lat":43.99787,"lon":22.93101,"name":"Calafat Fluvială","type":"station"},{"id":13556506972,"lat":45.72961,"lon":22.98912,"name":"Călan","type":"station"},{"id":2321834828,"lat":45.75916,"lon":23.00062,"name":"Călan Băi","type":"station"},{"id":286263226,"lat":47.24432,"lon":28.33462,"name":"Călărași","type":"station"},{"id":3124173324,"lat":44.26468,"lon":27.32498,"name":"Călărași Nord","type":"station"},{"id":487098710,"lat":44.19998,"lon":27.33411,"name":"Călărași Sud","type":"station"},{"id":2199303051,"lat":46.48751,"lon":23.88521,"name":"Călărași Turda","type":"station"},{"id":2292195561,"lat":46.90864,"lon":29.36752,"name":"Calfa","type":"station"},{"id":2669222356,"lat":45.23578,"lon":24.35488,"name":"Călimănești","type":"station"},{"id":3151300286,"lat":44.81032,"lon":25.06292,"name":"Călinești","type":"station"},{"id":3149603659,"lat":47.94334,"lon":23.90936,"name":"Cămara Sighet","type":"station"},{"id":3715615984,"lat":46.35875,"lon":23.07314,"name":"Câmpeni","type":"station"},{"id":1340993663,"lat":46.54719,"lon":23.8794,"name":"Câmpia Turzii","type":"station"},{"id":3085284941,"lat":45.13219,"lon":25.71165,"name":"Câmpina","type":"station"},{"id":11880652698,"lat":45.13174,"lon":25.73672,"name":"Câmpinița","type":"station"},{"id":2821103766,"lat":46.17234,"lon":23.9401,"name":"Câmpu Libertății","type":"station"},{"id":2614135479,"lat":45.25943,"lon":25.03751,"name":"Câmpulung","type":"station"},{"id":367413289,"lat":47.51751,"lon":25.59464,"name":"Câmpulung Est","type":"station"},{"id":3693316741,"lat":47.98351,"lon":23.76577,"name":"Câmpulung la Tisa","type":"station"},{"id":481269840,"lat":47.53364,"lon":25.5528,"name":"Câmpulung Moldovenesc","type":"station"},{"id":9959226316,"lat":45.93789,"lon":22.52986,"name":"Câmpuri Surduc","type":"station"},{"id":2104366266,"lat":46.46352,"lon":24.54826,"name":"Canta hc","type":"station"},{"id":1452236679,"lat":45.73337,"lon":22.83057,"name":"Canton 3 - Halta Cățănaș","type":"halt"},{"id":3149620284,"lat":47.24845,"lon":23.73028,"name":"Căpâlna pe Someș","type":"halt"},{"id":2614134388,"lat":44.35013,"lon":28.66046,"name":"Capu Midia","type":"station"},{"id":5214080729,"lat":44.11952,"lon":24.36465,"name":"Caracal","type":"station"},{"id":7640211606,"lat":45.42002,"lon":22.19522,"name":"Caransebeș","type":"station"},{"id":10731450475,"lat":45.40753,"lon":22.20493,"name":"Caransebeș hc","type":"halt"},{"id":7554675851,"lat":47.92746,"lon":26.51854,"name":"Carasa h.","type":"station"},{"id":3123880719,"lat":44.94862,"lon":23.18981,"name":"Cârbești","type":"station"},{"id":2292136678,"lat":44.95508,"lon":23.50848,"name":"Cărbunești","type":"station"},{"id":1865639260,"lat":47.69682,"lon":22.46031,"name":"Carei","type":"station"},{"id":9563700686,"lat":45.78365,"lon":20.90695,"name":"Cărpiniș","type":"station"},{"id":1342101398,"lat":45.78324,"lon":24.57373,"name":"Cârța hc","type":"halt"},{"id":12048087977,"lat":46.53207,"lon":25.7672,"name":"Cârțani hc","type":"halt"},{"id":3149615563,"lat":47.1887,"lon":23.85145,"name":"Cășeiu","type":"station"},{"id":648939206,"lat":44.25168,"lon":28.33474,"name":"Castelu hc","type":"station"},{"id":342055950,"lat":45.10536,"lon":28.74913,"name":"Cataloi","type":"station"},{"id":606752254,"lat":45.62697,"lon":28.97661,"name":"Cătlăbuga","nameLocal":"Котлабух","type":"station"},{"id":13416423387,"lat":47.6193,"lon":27.77231,"name":"Catranic","type":"station"},{"id":8277196608,"lat":45.43496,"lon":27.99576,"name":"Cătuşa","type":"station"},{"id":8021813318,"lat":46.67557,"lon":29.44838,"name":"Căuşeni","type":"station"},{"id":3123688766,"lat":45.54861,"lon":22.13874,"name":"Căvăran","type":"station"},{"id":3152759708,"lat":44.7988,"lon":25.54755,"name":"Cazaci","type":"halt"},{"id":3152836037,"lat":44.63441,"lon":27.00445,"name":"Căzănești","type":"station"},{"id":3874806055,"lat":44.7658,"lon":28.72205,"name":"Ceamurlia de Jos Hm","type":"station"},{"id":2150748360,"lat":46.90375,"lon":21.73183,"name":"Cefa","type":"station"},{"id":7826107184,"lat":47.40934,"lon":23.16024,"name":"Cehu Silvaniei","type":"station"},{"id":1763295007,"lat":46.13531,"lon":20.59516,"name":"Cenad","type":"station"},{"id":3629949217,"lat":48.25257,"lon":20.34505,"name":"Center","type":"station"},{"id":377000907,"lat":44.33737,"lon":28.02515,"name":"Cernavodă Pod","type":"station"},{"id":775583878,"lat":44.35542,"lon":23.7556,"name":"Cernele","type":"station"},{"id":13429787991,"lat":44.40531,"lon":26.27616,"name":"Cernica","type":"halt"},{"id":2381006791,"lat":44.62413,"lon":21.48992,"name":"Cesljeva Bara","nameLocal":"Чешљева Бара","type":"station"},{"id":10921869182,"lat":45.78879,"lon":20.84942,"name":"Checea Sat","type":"halt"},{"id":2339443755,"lat":43.70506,"lon":24.83884,"name":"Cherkvitsa","nameLocal":"Черквица","type":"station"},{"id":382299010,"lat":45.65472,"lon":21.49382,"name":"Chevereș","type":"halt"},{"id":775583904,"lat":44.47045,"lon":25.9803,"name":"Chiajna","type":"station"},{"id":2657767492,"lat":43.98109,"lon":25.76386,"name":"Chiriacu","type":"station"},{"id":3149761796,"lat":47.3222,"lon":22.34285,"name":"Chiribiș","type":"halt"},{"id":2292918885,"lat":46.00561,"lon":28.76939,"name":"Chiriutnea (Corten)","type":"station"},{"id":415964911,"lat":47.01305,"lon":28.8602,"name":"Chișinău","type":"station"},{"id":8027649190,"lat":46.52408,"lon":21.53141,"name":"Chișineu-Criș","type":"station"},{"id":122236985,"lat":44.50199,"lon":25.98459,"name":"Chitila","type":"station"},{"id":3123675327,"lat":45.75005,"lon":21.71153,"name":"Chizătău","type":"station"},{"id":3379968885,"lat":47.65215,"lon":29.583,"name":"Chubivka","nameLocal":"Чубівка","type":"station"},{"id":209611691,"lat":45.51659,"lon":21.12353,"name":"Ciacova","type":"station"},{"id":1196720448,"lat":46.07586,"lon":28.83743,"name":"Ciadîr-Lunga","type":"station"},{"id":12733038174,"lat":47.17645,"lon":23.98246,"name":"Ciceu Mihăeşti","type":"halt"},{"id":1294360715,"lat":46.53668,"lon":28.92737,"name":"Cimișlia","type":"station"},{"id":3151315633,"lat":44.58056,"lon":25.85074,"name":"Ciocănești","type":"station"},{"id":2614134394,"lat":44.0996,"lon":28.2779,"name":"Ciocârlia","type":"station"},{"id":3123776826,"lat":44.60314,"lon":23.12551,"name":"Ciochiuța","type":"station"},{"id":2309795326,"lat":45.56001,"lon":22.97643,"name":"Ciopeia","type":"halt"},{"id":3152827524,"lat":44.7891,"lon":26.38513,"name":"Ciorani","type":"station"},{"id":2104366271,"lat":46.43421,"lon":24.27292,"name":"Cipău hm","type":"station"},{"id":3123993649,"lat":47.55786,"lon":26.10783,"name":"Ciprian Porumbescu","type":"station"},{"id":3122981649,"lat":46.29567,"lon":26.56195,"name":"Cireșoaia","type":"station"},{"id":648906199,"lat":44.97062,"lon":27.36997,"name":"Cireșu","type":"station"},{"id":4540973876,"lat":45.71654,"lon":24.16063,"name":"Cisnădie","type":"station"},{"id":1857249663,"lat":47.21274,"lon":23.77692,"name":"Cițcău","type":"station"},{"id":3122410037,"lat":46.95469,"lon":22.81051,"name":"Ciucea","type":"station"},{"id":6420523890,"lat":45.1282,"lon":21.78798,"name":"Ciudanovița hc","type":"halt"},{"id":373491172,"lat":44.42744,"lon":27.35092,"name":"Ciulnița","type":"station"},{"id":8013778225,"lat":46.72548,"lon":21.59508,"name":"Ciumeghiu","type":"station"},{"id":2614135477,"lat":44.92635,"lon":24.88483,"name":"Ciumești","type":"station"},{"id":2255170912,"lat":47.09679,"lon":27.56718,"name":"Ciurea","type":"station"},{"id":2073415776,"lat":45.79322,"lon":20.79926,"name":"Clarii Vii","type":"station"},{"id":3150434497,"lat":45.81227,"lon":21.95712,"name":"Cliciova","type":"station"},{"id":3151277943,"lat":44.97996,"lon":24.9444,"name":"Clucereasa","type":"station"},{"id":258987961,"lat":46.78462,"lon":23.58617,"name":"Cluj-Napoca","nameLocal":"Cluj Napoca","type":"station"},{"id":354496018,"lat":46.77899,"lon":23.67086,"name":"Cluj-Napoca East","nameLocal":"Cluj Napoca Est","type":"station"},{"id":2018383621,"lat":46.78516,"lon":23.61223,"name":"Clujana h","type":"halt"},{"id":2614134579,"lat":44.05855,"lon":28.24491,"name":"Cobadin","type":"station"},{"id":2292160425,"lat":47.85782,"lon":28.60617,"name":"Cobîlnea","type":"station"},{"id":3144222562,"lat":43.97888,"lon":22.95667,"name":"Cobuz h","type":"halt"},{"id":1900978068,"lat":45.69352,"lon":25.45693,"name":"Codlea","type":"station"},{"id":3144469658,"lat":44.57068,"lon":28.56612,"name":"Cogealac","type":"station"},{"id":3122752477,"lat":47.1811,"lon":24.11888,"name":"Coldău","type":"station"},{"id":1774020188,"lat":45.71908,"lon":28.17191,"name":"Colibași","type":"station"},{"id":4807987549,"lat":44.17106,"lon":26.14672,"name":"Comana","type":"station"},{"id":1879656509,"lat":46.42097,"lon":26.4505,"name":"Comănești","type":"station"},{"id":244078944,"lat":45.24223,"lon":25.63341,"name":"Comarnic","type":"station"},{"id":1885885316,"lat":46.36269,"lon":28.66016,"name":"Comrat","nameLocal":"Komrat","type":"station"},{"id":12737156332,"lat":44.086,"lon":28.64791,"name":"Constanța Ferry-Boat","type":"station"},{"id":12237738538,"lat":44.17819,"lon":28.60755,"name":"Constanța Mărfuri","type":"station"},{"id":9450732085,"lat":44.16874,"lon":28.63157,"name":"Constanța Station","nameLocal":"Constanța","type":"station"},{"id":2727337427,"lat":44.98885,"lon":23.97249,"name":"Copăceni","type":"station"},{"id":2724122780,"lat":45.02458,"lon":23.43126,"name":"Copăcioasa","type":"station"},{"id":339067176,"lat":46.11537,"lon":24.23641,"name":"Copșa Mică","type":"station"},{"id":521339587,"lat":43.77199,"lon":24.50358,"name":"Corabia","type":"station"},{"id":549209637,"lat":44.49578,"lon":24.70899,"name":"Corbu","type":"station"},{"id":979271512,"lat":44.89989,"lon":26.1196,"name":"Corlătești","type":"station"},{"id":3684829728,"lat":45.80263,"lon":24.3527,"name":"Cornățel","type":"station"},{"id":3123758246,"lat":45.03499,"lon":22.31912,"name":"Cornea","type":"halt"},{"id":286263007,"lat":47.36285,"lon":28.00256,"name":"Cornești","type":"station"},{"id":2669262831,"lat":45.40112,"lon":24.30035,"name":"Cornet","type":"station"},{"id":2204999171,"lat":45.42972,"lon":22.09384,"name":"Cornuțel Banat","type":"station"},{"id":3160898981,"lat":46.40215,"lon":24.61276,"name":"Coroiu","type":"station"},{"id":1028481548,"lat":47.37363,"lon":24.39157,"name":"Coșbuc","type":"station"},{"id":2258802692,"lat":46.17274,"lon":23.67696,"name":"Coșlariu Nou","type":"station"},{"id":534654121,"lat":45.85969,"lon":27.33529,"name":"Cosmești","type":"station"},{"id":3123942346,"lat":47.37103,"lon":25.15108,"name":"Coșna","type":"station"},{"id":3150427346,"lat":45.74949,"lon":21.85909,"name":"Coșteiu Mare","type":"station"},{"id":775583820,"lat":44.6679,"lon":24.87743,"name":"Costești","type":"station"},{"id":2411903743,"lat":43.95924,"lon":28.63619,"name":"Costinești","type":"station"},{"id":3158580360,"lat":46.75322,"lon":26.65427,"name":"Costișa Hm","type":"station"},{"id":3120838117,"lat":45.63162,"lon":27.14949,"name":"Cotești","type":"station"},{"id":3146084840,"lat":47.34927,"lon":26.97176,"name":"Cotnari","type":"station"},{"id":3158266873,"lat":45.13033,"lon":25.99983,"name":"Coțofenești","type":"station"},{"id":3123810994,"lat":44.46095,"lon":23.66691,"name":"Coțofeni","type":"station"},{"id":3152800314,"lat":44.81422,"lon":26.86338,"name":"Cotorca","type":"station"},{"id":1633173747,"lat":45.85811,"lon":26.14667,"name":"Covasna","type":"station"},{"id":11793834768,"lat":45.32473,"lon":24.28319,"name":"Cozia","type":"station"},{"id":2821113724,"lat":46.17269,"lon":23.84339,"name":"Crăciunel","type":"station"},{"id":775583905,"lat":44.32883,"lon":23.81669,"name":"Craiova","type":"station"},{"id":3123820709,"lat":44.3417,"lon":23.78192,"name":"Craiova Triaj","type":"station"},{"id":7995753085,"lat":44.92386,"lon":25.9169,"name":"Crângu lui Bot","type":"station"},{"id":9904547142,"lat":44.92165,"lon":25.88448,"name":"Crângul lui Tei hc","type":"halt"},{"id":1490481783,"lat":46.50651,"lon":27.82437,"name":"Crasna","type":"station"},{"id":7875931900,"lat":46.64078,"lon":27.9664,"name":"Crețeștii","type":"station"},{"id":3120826901,"lat":44.94393,"lon":26.2363,"name":"Cricov","type":"station"},{"id":254499528,"lat":47.16967,"lon":27.7246,"name":"Cristești Jijia","type":"station"},{"id":534111255,"lat":45.61778,"lon":25.47986,"name":"Cristian Hm.","type":"station"},{"id":2667591351,"lat":45.77633,"lon":24.02509,"name":"Cristian Sibiu","type":"station"},{"id":245955723,"lat":46.29352,"lon":25.03891,"name":"Cristur","type":"station"},{"id":1378795171,"lat":48.26933,"lon":26.67354,"name":"Criva","type":"station"},{"id":3151236597,"lat":44.37284,"lon":24.29696,"name":"Criva","type":"halt"},{"id":2670416705,"lat":45.4636,"lon":23.19705,"name":"Crivadia","type":"station"},{"id":3120813828,"lat":44.75946,"lon":26.0261,"name":"Crivina","type":"station"},{"id":3140843785,"lat":45.47127,"lon":20.87105,"name":"Cruceni","type":"station"},{"id":3123758270,"lat":44.99584,"lon":22.32841,"name":"Crușovăț","type":"station"},{"id":1065129981,"lat":46.82279,"lon":20.66353,"name":"Csabacsűd","type":"station"},{"id":1670321158,"lat":48.12386,"lon":20.64894,"name":"Csanyik","type":"station"},{"id":1065130095,"lat":46.86203,"lon":20.93043,"name":"Csárdaszállás","type":"station"},{"id":4188974134,"lat":47.88832,"lon":21.71548,"name":"Császárszállás","type":"station"},{"id":497138625,"lat":47.82612,"lon":22.66629,"name":"Csenger","type":"station"},{"id":346357569,"lat":46.62344,"lon":20.84104,"name":"Csorvás","type":"station"},{"id":5599736000,"lat":47.05021,"lon":20.54145,"name":"Csugar","type":"halt"},{"id":12613144283,"lat":45.07761,"lon":27.24755,"name":"CTF Făurei h.","type":"halt"},{"id":2299262046,"lat":46.46029,"lon":24.1636,"name":"Cuci Hm","type":"station"},{"id":1827860562,"lat":47.3201,"lon":23.41422,"name":"Cuciulat","type":"station"},{"id":331265644,"lat":45.83165,"lon":23.37358,"name":"Cugir","type":"station"},{"id":6630800100,"lat":46.26121,"lon":28.93116,"name":"Culma","type":"station"},{"id":2667617206,"lat":45.92826,"lon":23.7191,"name":"Cunța","type":"station"},{"id":10054143077,"lat":43.91629,"lon":21.36536,"name":"Cuprija","nameLocal":"Ћуприја","type":"station"},{"id":2461582177,"lat":45.13613,"lon":24.67235,"name":"Curtea de Argeș","type":"station"},{"id":11679048313,"lat":46.34089,"lon":21.29794,"name":"Curtici","type":"station"},{"id":12419333430,"lat":45.77835,"lon":23.18592,"name":"Dacic Horse Train","type":"station"},{"id":7187493522,"lat":45.18649,"lon":24.3827,"name":"Dăești","type":"station"},{"id":8990069572,"lat":46.91799,"lon":27.20409,"name":"Dagâţa","type":"station"},{"id":3146055200,"lat":46.91732,"lon":27.20442,"name":"Dagâța","type":"station"},{"id":12199401224,"lat":43.98964,"lon":25.99088,"name":"Daia Hm","type":"halt"},{"id":2614134393,"lat":44.43345,"lon":27.04613,"name":"Dâlga","type":"station"},{"id":3152817578,"lat":44.92267,"lon":26.0723,"name":"Dâmbu","type":"station"},{"id":2821065651,"lat":46.22501,"lon":24.70336,"name":"Daneș","type":"station"},{"id":3146113170,"lat":47.85189,"lon":26.96003,"name":"Dângeni","type":"station"},{"id":3123978554,"lat":47.71291,"lon":26.14096,"name":"Dărmănești","type":"station"},{"id":9831956834,"lat":45.61884,"lon":25.6536,"name":"Dârste","type":"station"},{"id":2915035529,"lat":44.12713,"lon":23.69401,"name":"Dealu Robului h","type":"halt"},{"id":3048949696,"lat":47.58126,"lon":24.42199,"name":"Dealu Ștefăniței","type":"station"},{"id":1198547972,"lat":45.07194,"lon":20.6131,"name":"Debeljaca","nameLocal":"Дебељача","type":"station"},{"id":3669062535,"lat":47.51989,"lon":21.62876,"name":"Debrecen","type":"station"},{"id":2155870540,"lat":46.94144,"lon":24.86604,"name":"Deda","type":"station"},{"id":648871169,"lat":45.10933,"lon":27.40041,"name":"Dedulești","type":"station"},{"id":2235196597,"lat":47.14153,"lon":23.89431,"name":"Dej Călători","type":"station"},{"id":272187224,"lat":47.15638,"lon":23.91203,"name":"Dej Triaj","type":"station"},{"id":3693947081,"lat":48.11154,"lon":21.9271,"name":"Demecser","type":"station"},{"id":12733150278,"lat":44.47543,"lon":26.03004,"name":"Depoul Buc.Triaj (IIIK)","type":"halt"},{"id":8628739037,"lat":46.91555,"lon":24.49532,"name":"Depoul Drezinei","type":"station"},{"id":507098134,"lat":47.36361,"lon":21.58298,"name":"Derecske","type":"station"},{"id":10731450471,"lat":45.39659,"lon":21.23069,"name":"Deta","type":"station"},{"id":9330871706,"lat":45.8844,"lon":22.91056,"name":"Deva","type":"station"},{"id":6167285150,"lat":47.03404,"lon":20.94335,"name":"Dévaványa","type":"station"},{"id":2423097590,"lat":45.94573,"lon":29.27292,"name":"Devlet-Ağaç","nameLocal":"Давлет-Агач","type":"station"},{"id":3149662030,"lat":47.29704,"lon":22.01261,"name":"Diosig","type":"station"},{"id":2288080832,"lat":46.79774,"lon":25.47615,"name":"Ditrău","type":"station"},{"id":8036333599,"lat":45.91806,"lon":22.56989,"name":"Dobra","type":"station"},{"id":9820350197,"lat":45.10125,"lon":21.76897,"name":"Dobrei P. aj. M","type":"halt"},{"id":3122978750,"lat":46.33131,"lon":26.53403,"name":"Dofteana Bacău","type":"station"},{"id":11102736553,"lat":44.98739,"lon":25.41112,"name":"Doicești","type":"station"},{"id":11102736554,"lat":44.99813,"lon":25.40151,"name":"Doicești hc.","type":"station"},{"id":3124019284,"lat":47.42679,"lon":26.60852,"name":"Dolhasca","type":"station"},{"id":3123757173,"lat":45.05957,"lon":22.30833,"name":"Domașnea Cornea","type":"station"},{"id":324607888,"lat":48.2354,"lon":27.6091,"name":"Dondușeni","type":"station"},{"id":6011121105,"lat":45.19997,"lon":20.29616,"name":"Donji Titel","nameLocal":"Доњи Тител","type":"station"},{"id":2614134391,"lat":44.43481,"lon":26.95744,"name":"Dor Mărunt","type":"station"},{"id":3124167606,"lat":44.43553,"lon":26.92642,"name":"Dor Mărunt Sat","type":"station"},{"id":3149573039,"lat":47.87233,"lon":25.99987,"name":"Dornești","type":"station"},{"id":648943780,"lat":44.23874,"lon":28.36737,"name":"Dorobanțu","type":"station"},{"id":2084393123,"lat":47.96179,"lon":26.3927,"name":"Dorohoi","type":"station"},{"id":7419842797,"lat":47.96201,"lon":26.39283,"name":"Dorohoi","type":"station"},{"id":10731450472,"lat":46.86024,"lon":23.30039,"name":"Dorolțu","type":"halt"},{"id":775583639,"lat":44.2287,"lon":24.9713,"name":"Drăcșănei Hc.","type":"halt"},{"id":2104357875,"lat":46.16054,"lon":27.59915,"name":"Dragalina Hm","type":"station"},{"id":3152829099,"lat":44.82767,"lon":26.30102,"name":"Drăgănești Prahova","type":"station"},{"id":7421402049,"lat":44.15424,"lon":24.54455,"name":"Drăgănești-Olt","type":"station"},{"id":2657775959,"lat":44.09641,"lon":25.58554,"name":"Drăgănești-Vlașca","type":"station"},{"id":2669198928,"lat":44.66299,"lon":24.25745,"name":"Drăgășani","type":"station"},{"id":475574988,"lat":43.97323,"lon":20.82063,"name":"Dragobraca","nameLocal":"Драгобраћа","type":"station"},{"id":2614134392,"lat":44.43092,"lon":27.18661,"name":"Dragoș Vodă","type":"station"},{"id":4041670209,"lat":47.61766,"lon":25.61332,"name":"Dragosa","type":"halt"},{"id":7420798226,"lat":44.68103,"lon":26.44848,"name":"Dridu","type":"station"},{"id":13249799156,"lat":44.6221,"lon":22.64417,"name":"Drobeta Turnu Severin","type":"station"},{"id":3123771663,"lat":44.62234,"lon":22.68502,"name":"Drobeta Turnu Severin Est","type":"station"},{"id":3123759158,"lat":44.60847,"lon":22.7322,"name":"Drobeta Turnu Severin Mf.","type":"station"},{"id":691014269,"lat":48.03086,"lon":27.80988,"name":"Drochia","type":"station"},{"id":3137218331,"lat":46.03087,"lon":20.47364,"name":"Dudeștii Vechi","type":"halt"},{"id":3158587477,"lat":46.90057,"lon":26.41879,"name":"Dumbrava Hm","type":"station"},{"id":7427895802,"lat":46.21592,"lon":24.56334,"name":"Dumbrăveni","type":"station"},{"id":3160930779,"lat":46.64182,"lon":24.63988,"name":"Dumbrăvioara","type":"station"},{"id":2618002398,"lat":45.76257,"lon":25.43102,"name":"Dumbrăvița Bârsei Hm","type":"halt"},{"id":648925315,"lat":44.35227,"lon":27.96917,"name":"Dunărea Hm.","type":"station"},{"id":1063783640,"lat":47.46253,"lon":21.48865,"name":"Ebes","type":"station"},{"id":3123857729,"lat":45.06665,"lon":23.30125,"name":"Ecaterina Teodoroiu","type":"station"},{"id":7917263429,"lat":44.05784,"lon":28.63184,"name":"Eforie Nord","type":"station"},{"id":126004763,"lat":44.03383,"lon":28.64475,"name":"Eforie Sud","type":"station"},{"id":268602993,"lat":47.89167,"lon":20.38186,"name":"Eger","type":"station"},{"id":9481638129,"lat":47.8936,"lon":20.39682,"name":"Eger Téglagyár","type":"station"},{"id":1065130907,"lat":47.93651,"lon":20.37075,"name":"Eger-Felnémet","type":"station"},{"id":9481638130,"lat":47.90739,"lon":20.38082,"name":"Egervár","type":"halt"},{"id":628589424,"lat":47.61663,"lon":20.88392,"name":"Egyek","type":"station"},{"id":11294134835,"lat":45.43729,"lon":20.31121,"name":"Elemir","nameLocal":"Елемир","type":"station"},{"id":1065129992,"lat":47.93071,"lon":20.82269,"name":"Emőd","type":"station"},{"id":3122349954,"lat":47.0996,"lon":21.87635,"name":"Episcopia Bihor","type":"station"},{"id":3146077081,"lat":47.24851,"lon":27.24892,"name":"Erbiceni","type":"halt"},{"id":2292937579,"lat":45.54586,"lon":28.42947,"name":"Etulia","type":"station"},{"id":3124126959,"lat":45.39988,"lon":21.90709,"name":"Ezeriș","type":"station"},{"id":10332117589,"lat":45.8301,"lon":24.9761,"name":"Făgăraș","type":"station"},{"id":1843255087,"lat":45.84882,"lon":22.16888,"name":"Făget","type":"station"},{"id":6529785703,"lat":45.13885,"lon":26.02778,"name":"Făget Teleajen","type":"station"},{"id":7883389476,"lat":46.24763,"lon":28.10141,"name":"Fălciu","type":"station"},{"id":7877721526,"lat":46.28228,"lon":28.13085,"name":"Fălciu Nord","type":"station"},{"id":6026980252,"lat":44.2257,"lon":24.34566,"name":"Fălcoiu","type":"halt"},{"id":595773111,"lat":47.54901,"lon":27.74062,"name":"Fălești","type":"station"},{"id":3151248830,"lat":44.6094,"lon":24.82393,"name":"Fâlfani Hm.","type":"station"},{"id":1948823677,"lat":47.46367,"lon":26.30981,"name":"Fălticeni","type":"station"},{"id":12733234236,"lat":47.32397,"lon":22.24302,"name":"Făncica","type":"halt"},{"id":3160902383,"lat":46.41655,"lon":24.76094,"name":"Fântânele","type":"station"},{"id":10731450473,"lat":44.12154,"lon":24.45213,"name":"Fărcașele","type":"station"},{"id":3126109999,"lat":45.0827,"lon":27.27481,"name":"Făurei","type":"station"},{"id":1104399656,"lat":47.19436,"lon":20.55753,"name":"Fegyvernek-Örményes","type":"station"},{"id":1065130406,"lat":47.97879,"lon":22.52421,"name":"Fehérgyarmat","type":"station"},{"id":2820172655,"lat":45.82522,"lon":25.58678,"name":"Feldioara","type":"station"},{"id":7443431333,"lat":47.2758,"lon":24.59368,"name":"Feldru","type":"station"},{"id":242698018,"lat":46.11044,"lon":21.13561,"name":"Felnac","type":"halt"},{"id":499510828,"lat":48.08368,"lon":20.86607,"name":"Felsőzsolca","type":"station"},{"id":10251785748,"lat":48.26712,"lon":22.10731,"name":"Fényeslitke","type":"station"},{"id":341933666,"lat":44.41711,"lon":27.82178,"name":"Fetești","type":"station"},{"id":3149587102,"lat":47.49493,"lon":24.3904,"name":"Fiad","type":"station"},{"id":13429692629,"lat":45.12567,"lon":25.42132,"name":"Fieni","type":"station"},{"id":3152793546,"lat":44.66627,"lon":26.36828,"name":"Fierbinți","type":"station"},{"id":12732868045,"lat":47.45923,"lon":24.3903,"name":"Fiezel","type":"halt"},{"id":614963718,"lat":45.44392,"lon":28.00706,"name":"Filești","type":"station"},{"id":13574976615,"lat":44.55233,"lon":23.51092,"name":"Filiași","type":"station"},{"id":528727494,"lat":44.81689,"lon":24.2466,"name":"Fișcălia","type":"station"},{"id":1923465021,"lat":47.35933,"lon":25.22193,"name":"Floreni","type":"station"},{"id":636902885,"lat":47.88546,"lon":28.30734,"name":"Florești","type":"station"},{"id":3120773397,"lat":45.02986,"lon":25.81012,"name":"Florești Prahova","type":"station"},{"id":345539748,"lat":45.70124,"lon":27.16927,"name":"Focșani","type":"station"},{"id":9481153346,"lat":46.31374,"lon":20.48819,"name":"Földeák","type":"station"},{"id":3145902475,"lat":45.73866,"lon":28.06961,"name":"Foltești","type":"station"},{"id":3123955017,"lat":47.54187,"lon":25.79173,"name":"Frasin","type":"station"},{"id":12199393522,"lat":43.96405,"lon":25.97137,"name":"Frățești","type":"station"},{"id":1228431510,"lat":43.97239,"lon":22.8483,"name":"Freight station Vidin","nameLocal":"Товарна гара Видин","type":"station"},{"id":255518728,"lat":44.37899,"lon":26.34318,"name":"Frunzănești","type":"station"},{"id":3145977166,"lat":45.90163,"lon":27.41986,"name":"Frunzeasca","type":"station"},{"id":3122765103,"lat":46.95901,"lon":23.80089,"name":"Fundătura","type":"station"},{"id":3124167581,"lat":44.45109,"lon":26.51131,"name":"Fundulea","type":"station"},{"id":3151307573,"lat":44.67406,"lon":25.50291,"name":"Fusea","type":"station"},{"id":9010326331,"lat":47.75122,"lon":20.41446,"name":"Füzesabony","type":"station"},{"id":1065130266,"lat":47.11298,"lon":21.19428,"name":"Füzesgyarmat","type":"station"},{"id":347352747,"lat":46.65665,"lon":20.58831,"name":"Gádoros","type":"station"},{"id":1805891030,"lat":44.71398,"lon":25.30387,"name":"Găești","type":"station"},{"id":828457768,"lat":45.02404,"lon":25.93713,"name":"Găgeni","type":"station"},{"id":8006471162,"lat":47.9059,"lon":25.80136,"name":"Gălănești","type":"station"},{"id":10731450474,"lat":46.87946,"lon":23.17688,"name":"Gălășeni","type":"halt"},{"id":775583781,"lat":44.21107,"lon":25.37042,"name":"Gălăteni","type":"station"},{"id":8176378047,"lat":45.44487,"lon":28.06104,"name":"Galați","type":"station"},{"id":8219473514,"lat":45.44846,"lon":28.09054,"name":"Galați Bazin","type":"station"},{"id":8218717155,"lat":45.45324,"lon":28.0706,"name":"Galați Brateș","type":"station"},{"id":8222421749,"lat":45.44931,"lon":28.10019,"name":"Galați Largă","type":"station"},{"id":8150747115,"lat":45.4496,"lon":28.11789,"name":"Galați Largă Frontieră","type":"station"},{"id":8219473515,"lat":45.44341,"lon":28.07134,"name":"Galați Mărfuri","type":"station"},{"id":8166752354,"lat":45.45128,"lon":28.08576,"name":"Galați Transbordare","type":"station"},{"id":797716873,"lat":46.91153,"lon":25.40608,"name":"Gălăuțaș","type":"station"},{"id":3120893175,"lat":46.74748,"lon":26.88208,"name":"Galbeni","type":"station"},{"id":2104357876,"lat":44.31305,"lon":26.41329,"name":"Gălbinași Hm","type":"station"},{"id":1857578282,"lat":47.28,"lon":23.69765,"name":"Gâlgău","type":"station"},{"id":1850577848,"lat":47.26856,"lon":23.66911,"name":"Gâlgău haltă","type":"halt"},{"id":2344385948,"lat":45.01351,"lon":23.56906,"name":"Gara Albeni","type":"station"},{"id":12848573537,"lat":44.33674,"lon":26.13965,"name":"Gara Berceni","type":"halt"},{"id":245948479,"lat":45.04298,"lon":27.02159,"name":"Gara Cilibia","type":"station"},{"id":13121251703,"lat":44.44674,"lon":26.07384,"name":"Gara de Nord","type":"station"},{"id":648913285,"lat":44.88885,"lon":27.43635,"name":"Gara Dudești hc","type":"station"},{"id":247416268,"lat":47.16543,"lon":27.56973,"name":"Gara Iași","type":"station"},{"id":40371817,"lat":46.96104,"lon":24.70437,"name":"Gara Monor-Gledin","type":"station"},{"id":337996221,"lat":44.79978,"lon":22.966,"name":"Gara Motru","type":"station"},{"id":648922392,"lat":44.53995,"lon":27.71759,"name":"Gara Movila","type":"station"},{"id":648917578,"lat":44.74207,"lon":27.57416,"name":"Gara Murgeanca","type":"station"},{"id":1144979474,"lat":45.76477,"lon":27.07346,"name":"Gara Odobești","type":"station"},{"id":449799525,"lat":44.72038,"lon":24.25467,"name":"Gara Prundeni","type":"station"},{"id":2309841053,"lat":45.51935,"lon":23.0839,"name":"Gara Pui","type":"station"},{"id":2820179632,"lat":46.02175,"lon":25.42163,"name":"Gara Racoș","type":"station"},{"id":2329046327,"lat":46.92268,"lon":24.781,"name":"Gara Râpa de Jos","type":"station"},{"id":2341633849,"lat":47.18759,"lon":24.02299,"name":"Gara Reteag","type":"station"},{"id":2254653684,"lat":47.21567,"lon":27.15133,"name":"Gara Sârca","type":"station"},{"id":648909761,"lat":44.94008,"lon":27.39477,"name":"Gara Scărlătești hc","type":"station"},{"id":648915206,"lat":44.8153,"lon":27.51178,"name":"Gara Spicu","type":"station"},{"id":2066642509,"lat":46.94881,"lon":22.53731,"name":"Gara Șuncuiuș","type":"station"},{"id":648921734,"lat":44.64713,"lon":27.64824,"name":"Gara Țăndărei","type":"station"},{"id":311077921,"lat":44.71903,"lon":26.64514,"name":"Gara Urziceni","type":"station"},{"id":1274372421,"lat":45.68548,"lon":25.89108,"name":"Gara Valea Teliului","type":"station"},{"id":297002586,"lat":45.04855,"lon":25.95504,"name":"Gara Veche","type":"station"},{"id":400297494,"lat":45.20435,"lon":26.73217,"name":"Gara Vernești","type":"station"},{"id":9323403675,"lat":48.11609,"lon":20.55832,"name":"Garadna","type":"station"},{"id":3122430079,"lat":46.83102,"lon":23.35891,"name":"Gârbău","type":"station"},{"id":2104366287,"lat":44.73225,"lon":23.35736,"name":"Gârbovu","type":"station"},{"id":3158576989,"lat":46.65707,"lon":26.81355,"name":"Gărleni","type":"station"},{"id":7468281847,"lat":45.14353,"lon":21.83021,"name":"Gârliște Hm","type":"station"},{"id":305293778,"lat":45.42274,"lon":21.42794,"name":"Gătaia","type":"station"},{"id":3123684530,"lat":45.62254,"lon":22.0245,"name":"Găvojdia","type":"station"},{"id":534654215,"lat":45.85019,"lon":27.27784,"name":"General Eremia Grigorescu","type":"station"},{"id":3149667295,"lat":47.69982,"lon":22.67952,"name":"General Gheorghe Avramescu","type":"station"},{"id":7966007170,"lat":46.49093,"lon":24.46238,"name":"General Nicolae Dăscălescu","type":"station"},{"id":535151169,"lat":45.5687,"lon":25.34965,"name":"General Traian Moșoiu hc.","type":"station"},{"id":13429858570,"lat":45.31037,"lon":25.99678,"name":"Gheaba 2","type":"halt"},{"id":4290854886,"lat":46.71931,"lon":25.57371,"name":"Gheorgheni","type":"station"},{"id":3151315004,"lat":44.64245,"lon":25.71665,"name":"Ghergani","type":"station"},{"id":436251374,"lat":45.26729,"lon":27.26072,"name":"Ghergheasa","type":"station"},{"id":13146367115,"lat":47.02755,"lon":23.91242,"name":"Gherla","type":"station"},{"id":3020799963,"lat":45.4214,"lon":21.58784,"name":"Gherteniș","type":"halt"},{"id":3145978793,"lat":46.07526,"lon":27.47891,"name":"Ghidigeni","type":"station"},{"id":1229824152,"lat":47.07293,"lon":28.75359,"name":"Ghidighici","type":"station"},{"id":4729254029,"lat":44.90842,"lon":26.05854,"name":"Ghighiu","type":"station"},{"id":1863116734,"lat":45.66978,"lon":25.50923,"name":"Ghimbav","type":"station"},{"id":2397522026,"lat":46.56829,"lon":26.0892,"name":"Ghimeș","type":"station"},{"id":637025382,"lat":47.86132,"lon":28.37645,"name":"Ghindești","type":"station"},{"id":9330926619,"lat":46.14805,"lon":21.58377,"name":"Ghioroc","type":"station"},{"id":3126148100,"lat":48.10413,"lon":27.73245,"name":"Ghizdita","type":"station"},{"id":316052597,"lat":45.83348,"lon":21.30723,"name":"Giarmata","type":"station"},{"id":3138053347,"lat":45.39971,"lon":20.99178,"name":"Giera","type":"station"},{"id":2715768079,"lat":44.65633,"lon":23.52383,"name":"Gilort","type":"station"},{"id":304923523,"lat":44.77317,"lon":26.78458,"name":"Girbovi","type":"station"},{"id":3123777178,"lat":44.61358,"lon":22.84898,"name":"Girnita","type":"station"},{"id":4487451478,"lat":45.70644,"lon":21.23511,"name":"Giroc","type":"halt"},{"id":8694248830,"lat":43.89554,"lon":25.96139,"name":"Giurgiu","type":"station"},{"id":257011662,"lat":43.92393,"lon":25.96483,"name":"Giurgiu Nord","type":"station"},{"id":9606418762,"lat":45.47178,"lon":28.20267,"name":"Giurgiuleşti","type":"station"},{"id":2423097585,"lat":45.86065,"lon":29.22137,"name":"Glăvani","nameLocal":"Главані","type":"station"},{"id":2187060852,"lat":46.44178,"lon":23.99532,"name":"Gligorești","type":"station"},{"id":7821536515,"lat":47.80264,"lon":27.52132,"name":"Glodeni","type":"station"},{"id":3149622350,"lat":47.28156,"lon":23.64551,"name":"Glodu Someșului","type":"station"},{"id":9910002796,"lat":46.17644,"lon":21.40949,"name":"Glogovăț","type":"station"},{"id":2424022453,"lat":45.98904,"lon":29.53624,"name":"Gnadental","nameLocal":"Ґнаденталь","type":"station"},{"id":2386544915,"lat":46.4496,"lon":26.29229,"name":"Goioasa","type":"station"},{"id":8464375491,"lat":43.98059,"lon":23.05176,"name":"Golenti","nameLocal":"Golenți","type":"station"},{"id":2104333951,"lat":44.83653,"lon":24.96647,"name":"Golești","type":"station"},{"id":507098479,"lat":48.03983,"lon":21.55521,"name":"Görögszállás","type":"station"},{"id":2669215108,"lat":45.02403,"lon":24.28324,"name":"Govora","type":"station"},{"id":775583753,"lat":44.38195,"lon":25.82468,"name":"Grădinari","type":"station"},{"id":3020912477,"lat":45.11748,"lon":21.59573,"name":"Gradinari Caras","type":"station"},{"id":3123940248,"lat":47.34178,"lon":25.06478,"name":"Grădinița","type":"station"},{"id":11959050020,"lat":44.20559,"lon":26.16311,"name":"Grădiștea","type":"station"},{"id":7474348471,"lat":46.9787,"lon":27.55174,"name":"Grajduri","type":"station"},{"id":2292933287,"lat":45.75921,"lon":28.5322,"name":"Greceni","type":"station"},{"id":3152794786,"lat":44.6524,"lon":26.29344,"name":"Greci","type":"station"},{"id":5653443067,"lat":45.10009,"lon":21.62995,"name":"Greoni h.","type":"station"},{"id":280336466,"lat":44.4618,"lon":26.05752,"name":"Grivița","type":"station"},{"id":1845365669,"lat":43.85589,"lon":22.29015,"name":"Grljan","nameLocal":"Грљан","type":"station"},{"id":2614135480,"lat":44.88134,"lon":24.8841,"name":"Gropeni","type":"station"},{"id":475574941,"lat":43.9949,"lon":20.87655,"name":"Grosnica","nameLocal":"Грошница","type":"station"},{"id":3144244414,"lat":44.08711,"lon":24.38026,"name":"Grupa Tehnică Caracal","type":"station"},{"id":475575098,"lat":43.89235,"lon":20.76784,"name":"Gruza","nameLocal":"Гружа","type":"station"},{"id":3120847693,"lat":45.56704,"lon":27.13118,"name":"Gugești","type":"station"},{"id":315473594,"lat":47.55241,"lon":25.94251,"name":"Gura Humorului","type":"station"},{"id":1211046023,"lat":47.5508,"lon":25.88277,"name":"Gura Humorului Oraș","type":"station"},{"id":3123801968,"lat":44.57345,"lon":23.43222,"name":"Gura Motrului","type":"station"},{"id":1015608812,"lat":47.9151,"lon":25.62377,"name":"Gura Putnei","type":"station"},{"id":3123768554,"lat":44.66006,"lon":22.56034,"name":"Gura Văii","type":"station"},{"id":9769937557,"lat":45.16151,"lon":26.02951,"name":"Gura Vitioarei PO","type":"halt"},{"id":3150248627,"lat":46.27401,"lon":22.34371,"name":"Gurahonț","type":"station"},{"id":268205508,"lat":46.92476,"lon":20.82243,"name":"Gyoma","type":"station"},{"id":1260955751,"lat":47.92107,"lon":22.44329,"name":"Győrtelek alsó","type":"station"},{"id":1065130523,"lat":46.6564,"lon":21.2736,"name":"Gyula","type":"station"},{"id":8026753687,"lat":46.74132,"lon":29.51897,"name":"Hagimus","type":"station"},{"id":9836163223,"lat":47.40289,"lon":21.66255,"name":"Hajdúbagos","type":"station"},{"id":628589433,"lat":47.6686,"lon":21.52405,"name":"Hajdúböszörmény","type":"station"},{"id":3273591233,"lat":47.8053,"lon":21.49305,"name":"Hajdúdorog","type":"station"},{"id":1065130189,"lat":47.68721,"lon":21.67965,"name":"Hajdúhadház","type":"station"},{"id":628589436,"lat":47.83181,"lon":21.42747,"name":"Hajdúnánás","type":"station"},{"id":628589432,"lat":47.60811,"lon":21.75496,"name":"Hajdúsámson","type":"station"},{"id":1403265042,"lat":47.60816,"lon":21.57842,"name":"Hajdúszentgyörgy","type":"halt"},{"id":268203181,"lat":47.42926,"lon":21.40717,"name":"Hajdúszoboszló","type":"station"},{"id":10223546798,"lat":47.52162,"lon":21.81878,"name":"Haláp","type":"halt"},{"id":3120896183,"lat":47.09396,"lon":26.81816,"name":"Hălăucești","type":"station"},{"id":8021388695,"lat":46.25439,"lon":22.56889,"name":"Hălmagiu","type":"station"},{"id":1065129962,"lat":48.24634,"lon":20.99134,"name":"Halmaj","type":"station"},{"id":3149655987,"lat":47.98453,"lon":22.99781,"name":"Halmeu","type":"station"},{"id":339067177,"lat":46.09793,"lon":24.21607,"name":"Halta Axente Sever","type":"halt"},{"id":10758445624,"lat":45.02893,"lon":26.02424,"name":"Halta Boldești","type":"halt"},{"id":481015637,"lat":45.83915,"lon":23.37011,"name":"Halta Cugir","type":"station"},{"id":10731450476,"lat":45.88407,"lon":23.24872,"name":"Halta Geoagiu","type":"station"},{"id":1828364747,"lat":45.08295,"lon":26.03389,"name":"Halta Măgurele Sud","type":"station"},{"id":936349529,"lat":45.27402,"lon":25.05008,"name":"Halta Parcul Krețulescu","type":"station"},{"id":1273803885,"lat":45.68099,"lon":25.93481,"name":"Halta Poiana Florilor","type":"station"},{"id":1354461832,"lat":46.099,"lon":23.33102,"name":"Halta Prisaca Ampoiului","type":"station"},{"id":1029214415,"lat":47.54031,"lon":24.43568,"name":"Halta Romuli","type":"station"},{"id":7612702420,"lat":46.40581,"lon":23.44017,"name":"Halta Sălciua","type":"halt"},{"id":7876606053,"lat":46.57019,"lon":27.85671,"name":"Halta Tirzii","type":"station"},{"id":246300215,"lat":45.30932,"lon":25.56853,"name":"Halta Valea Largă","type":"station"},{"id":3158574127,"lat":46.6302,"lon":26.85725,"name":"Hămeiuș h","type":"halt"},{"id":530715129,"lat":45.58248,"lon":27.59427,"name":"Hanu Conachi","type":"station"},{"id":3146087302,"lat":47.4185,"lon":26.92144,"name":"Hârlău","type":"station"},{"id":2088363038,"lat":45.69809,"lon":25.68713,"name":"Hărman","type":"station"},{"id":3151243822,"lat":44.51706,"lon":24.75582,"name":"Hârșești","type":"station"},{"id":345015012,"lat":47.96037,"lon":20.86927,"name":"Hejőkeresztúr","type":"station"},{"id":6558553216,"lat":48.05146,"lon":20.98507,"name":"Hernádnémeti-Bőcs","type":"station"},{"id":503340099,"lat":47.60923,"lon":20.30629,"name":"Heves","type":"station"},{"id":629119581,"lat":47.67869,"lon":27.74978,"name":"Hiliuți","type":"station"},{"id":1065130607,"lat":47.89617,"lon":22.2138,"name":"Hodász","type":"station"},{"id":337745926,"lat":46.41348,"lon":20.34012,"name":"Hódmezővásárhely","type":"station"},{"id":7054973732,"lat":46.40294,"lon":20.31163,"name":"Hódmezővásárhelyi Népkert","type":"station"},{"id":11818787744,"lat":47.14801,"lon":27.6941,"name":"Holboca","type":"station"},{"id":2729101561,"lat":45.89439,"lon":22.39344,"name":"Holdea","type":"station"},{"id":3150246119,"lat":46.78168,"lon":22.13039,"name":"Holod","type":"station"},{"id":3150244881,"lat":46.77577,"lon":22.10524,"name":"Holod Vest","type":"station"},{"id":7825086144,"lat":45.26765,"lon":26.01632,"name":"Homorâciu","type":"station"},{"id":9520492325,"lat":47.86683,"lon":25.86125,"name":"Horodnic","type":"halt"},{"id":9552564783,"lat":44.03418,"lon":23.27621,"name":"Horticola h","type":"halt"},{"id":619723925,"lat":47.5861,"lon":21.15445,"name":"Hortobágy","type":"station"},{"id":1436523066,"lat":47.60536,"lon":21.06957,"name":"Hortobágy-Halastó","type":"station"},{"id":9836163222,"lat":47.39941,"lon":21.72923,"name":"Hosszúpályi","type":"station"},{"id":9931967335,"lat":46.86722,"lon":23.03139,"name":"Huedin","type":"station"},{"id":316228237,"lat":45.7611,"lon":22.90049,"name":"Hunedoara","type":"station"},{"id":1452229804,"lat":45.75163,"lon":22.88507,"name":"Hunedoara-Vest","type":"station"},{"id":598476300,"lat":46.67537,"lon":28.04507,"name":"Huși","type":"station"},{"id":3123760265,"lat":44.94232,"lon":22.3266,"name":"Iablanița","type":"station"},{"id":814947632,"lat":47.41894,"lon":25.30892,"name":"Iacobeni","type":"station"},{"id":2251279852,"lat":47.44647,"lon":27.30521,"name":"Iacobeni Vechi","type":"halt"},{"id":3152820606,"lat":44.74865,"lon":26.50645,"name":"Ialomița","type":"station"},{"id":3144166692,"lat":45.0064,"lon":21.40084,"name":"Iam","type":"station"},{"id":2292882785,"lat":46.42356,"lon":28.43185,"name":"Iargara","type":"station"},{"id":3122764934,"lat":46.97824,"lon":23.8164,"name":"Iclod","type":"station"},{"id":9901857601,"lat":46.44075,"lon":24.22336,"name":"Iernut","type":"station"},{"id":3123777228,"lat":44.58887,"lon":22.9752,"name":"Igiroasa","type":"station"},{"id":3149623524,"lat":47.32632,"lon":23.60922,"name":"Ileanda","type":"station"},{"id":9823292335,"lat":45.94003,"lon":22.65906,"name":"Ilia","type":"station"},{"id":2668437215,"lat":46.00705,"lon":22.35484,"name":"Ilteu","type":"station"},{"id":3123933251,"lat":47.36359,"lon":24.87192,"name":"Ilva Mare","type":"station"},{"id":315483927,"lat":47.3055,"lon":24.63779,"name":"Ilva Mica","type":"station"},{"id":5749312790,"lat":45.9399,"lon":26.15773,"name":"Imeci","type":"station"},{"id":819330194,"lat":45.4781,"lon":27.76181,"name":"Independența","type":"station"},{"id":8022385334,"lat":46.42088,"lon":21.82792,"name":"Ineu","type":"station"},{"id":6296460744,"lat":44.97152,"lon":26.34926,"name":"Inotești","type":"station"},{"id":1591130376,"lat":45.67509,"lon":26.0273,"name":"Întorsura Buzăului","type":"station"},{"id":2192523766,"lat":46.67528,"lon":22.27109,"name":"Ioaniș","type":"station"},{"id":2614135484,"lat":44.86284,"lon":24.91989,"name":"Ion C. Brătianu","type":"station"},{"id":7995675714,"lat":44.90799,"lon":25.72373,"name":"Ion Luca Caragiale","type":"station"},{"id":130252368,"lat":44.90848,"lon":25.69934,"name":"Ion Luca Caragiale Vest","type":"halt"},{"id":3137243474,"lat":45.57054,"lon":20.85569,"name":"Ionel","type":"station"},{"id":2669209636,"lat":44.87318,"lon":24.23122,"name":"Ionești","type":"station"},{"id":3149757634,"lat":47.22073,"lon":22.60781,"name":"Ipu","type":"station"},{"id":3123815944,"lat":44.40453,"lon":23.7158,"name":"Ișalnița","type":"station"},{"id":3124090694,"lat":45.37954,"lon":23.33432,"name":"Iscroni","type":"station"},{"id":3120891014,"lat":46.66751,"lon":26.89716,"name":"Itești","type":"station"},{"id":534652780,"lat":45.68799,"lon":27.51659,"name":"Ivești","type":"station"},{"id":1216478405,"lat":47.65721,"lon":24.37752,"name":"Iza","type":"station"},{"id":633709003,"lat":45.35998,"lon":28.81214,"name":"Izmail","nameLocal":"Ізмаїл","type":"station"},{"id":3123665777,"lat":45.7944,"lon":21.46134,"name":"Izvin","type":"station"},{"id":7850806416,"lat":45.28093,"lon":26.00254,"name":"Izvoarele","type":"station"},{"id":3122890624,"lat":46.62678,"lon":25.71599,"name":"Izvoru Mureșului","type":"station"},{"id":3122897363,"lat":46.56775,"lon":25.79535,"name":"Izvoru Oltului","type":"station"},{"id":3123675669,"lat":45.72671,"lon":21.82653,"name":"Jabăr","type":"station"},{"id":1845260559,"lat":43.98229,"lon":21.2634,"name":"Jagodina","nameLocal":"Јагодина","type":"station"},{"id":1395849407,"lat":45.25532,"lon":21.40183,"name":"Jamu Mare","type":"station"},{"id":9509790976,"lat":45.55655,"lon":21.19807,"name":"Jebel","type":"station"},{"id":2614134395,"lat":44.42266,"lon":27.58418,"name":"Jegălia","type":"station"},{"id":3123656033,"lat":45.59027,"lon":22.08172,"name":"Jena","type":"station"},{"id":775583654,"lat":44.16399,"lon":24.13077,"name":"Jianca","type":"station"},{"id":7829141195,"lat":47.2513,"lon":23.263,"name":"Jibou","type":"station"},{"id":3160068762,"lat":46.22998,"lon":24.10803,"name":"Jidvei","type":"station"},{"id":12197335618,"lat":44.34189,"lon":26.10656,"name":"Jilava","type":"station"},{"id":1829577110,"lat":45.8002,"lon":20.71847,"name":"Jimbolia","type":"station"},{"id":775583946,"lat":44.30551,"lon":23.84571,"name":"Jiu Hm.","type":"halt"},{"id":9723630073,"lat":46.86278,"lon":23.76384,"name":"Jucu","type":"station"},{"id":2715785096,"lat":44.90929,"lon":23.51898,"name":"Jupânești","type":"station"},{"id":3412605384,"lat":47.36896,"lon":21.25954,"name":"Kaba","type":"station"},{"id":1065130519,"lat":47.85439,"lon":21.93488,"name":"Kállósemjén","type":"station"},{"id":2381013383,"lat":44.48913,"lon":21.63519,"name":"Kaona","nameLocal":"Каона","type":"station"},{"id":9993062361,"lat":47.30338,"lon":20.92956,"name":"Karcag","type":"station"},{"id":13336796571,"lat":47.32196,"lon":20.90713,"name":"Karcag-Vásártér","type":"halt"},{"id":501798219,"lat":46.49825,"lon":20.69769,"name":"Kardoskút","type":"station"},{"id":499510894,"lat":48.26428,"lon":20.62855,"name":"Kazincbarcika","type":"station"},{"id":7131957065,"lat":48.06531,"lon":21.80188,"name":"Kemecse","type":"station"},{"id":10224175224,"lat":47.25433,"lon":20.6863,"name":"Kenderes","type":"station"},{"id":8302980852,"lat":46.53255,"lon":21.1721,"name":"Kétegyháza","type":"station"},{"id":5599734755,"lat":47.07694,"lon":20.48769,"name":"Kétpó","type":"halt"},{"id":5911266560,"lat":44.72337,"lon":20.43694,"name":"Kijevo","nameLocal":"Кијево","type":"halt"},{"id":1461569187,"lat":45.83793,"lon":20.48878,"name":"Kikinda","nameLocal":"Кикинда","type":"station"},{"id":10169288687,"lat":47.49531,"lon":20.48158,"name":"Kisköre","type":"station"},{"id":1065129661,"lat":47.24383,"lon":21.81389,"name":"Kismarja","type":"station"},{"id":6284985778,"lat":46.75117,"lon":20.72166,"name":"Kisszénás","type":"station"},{"id":9993062362,"lat":47.22406,"lon":20.7513,"name":"Kisújszállás","type":"station"},{"id":3731378565,"lat":48.20815,"lon":22.07824,"name":"Kisvárda","type":"station"},{"id":1065130386,"lat":46.19219,"lon":20.41321,"name":"Kiszombor","type":"station"},{"id":324012523,"lat":47.81451,"lon":29.25276,"name":"Klymentove","nameLocal":"Климентове","type":"station"},{"id":12733150279,"lat":44.84175,"lon":24.89801,"name":"Km. 106+800","type":"halt"},{"id":13430404261,"lat":44.64838,"lon":23.41193,"name":"Km. 9 + 820","type":"halt"},{"id":5911266553,"lat":44.73162,"lon":20.4312,"name":"Knezevac","nameLocal":"Кнежевац","type":"halt"},{"id":6011121107,"lat":45.19614,"lon":20.32704,"name":"Knicanin","nameLocal":"Книћанин","type":"station"},{"id":497138623,"lat":47.94628,"lon":22.40141,"name":"Kocsord alsó","type":"station"},{"id":529886097,"lat":48.0912,"lon":29.12139,"name":"Kodyma","nameLocal":"Кодима","type":"station"},{"id":10223546795,"lat":47.52564,"lon":21.71343,"name":"Kondoroskert","type":"halt"},{"id":1065129484,"lat":47.32357,"lon":21.66616,"name":"Konyár","type":"station"},{"id":10236399595,"lat":47.32405,"lon":21.74542,"name":"Konyári Sóstófürdő","type":"halt"},{"id":4260943396,"lat":48.15353,"lon":23.14091,"name":"Korolevo","nameLocal":"Королево","type":"station"},{"id":501797919,"lat":46.97001,"lon":21.08589,"name":"Körösladány","type":"station"},{"id":501797823,"lat":46.75856,"lon":21.47957,"name":"Kötegyán","type":"station"},{"id":11501870140,"lat":44.01013,"lon":20.92843,"name":"Kragujevac","nameLocal":"Крагујевац","type":"station"},{"id":475575393,"lat":43.72856,"lon":20.69345,"name":"Kraljevo","nameLocal":"Краљево","type":"station"},{"id":10069238515,"lat":44.84797,"lon":20.50548,"name":"Krnjaca","nameLocal":"Крњача","type":"station"},{"id":2381013878,"lat":44.47225,"lon":21.67529,"name":"Kucevo","nameLocal":"Кучево","type":"station"},{"id":10223586987,"lat":47.37651,"lon":20.64082,"name":"Kunhegyes","type":"station"},{"id":1065130714,"lat":46.84835,"lon":20.29337,"name":"Kunszentmárton","type":"station"},{"id":475574660,"lat":44.37599,"lon":20.8289,"name":"Kusadak","nameLocal":"Кусадак","type":"station"},{"id":1065130379,"lat":46.45941,"lon":20.45209,"name":"Kútvölgy","type":"station"},{"id":7552504641,"lat":45.22673,"lon":27.8671,"name":"Lacu Sărat","type":"station"},{"id":13578005762,"lat":45.26995,"lon":23.38466,"name":"Lainici","type":"station"},{"id":12733245797,"lat":46.07208,"lon":22.03622,"name":"Lalaşinţ","type":"halt"},{"id":475574753,"lat":44.15775,"lon":21.10223,"name":"Lapovo","nameLocal":"Лапово","type":"station"},{"id":413972937,"lat":47.33175,"lon":27.38317,"name":"Larga Jijia","type":"station"},{"id":3123937841,"lat":47.33163,"lon":25.01542,"name":"Larion","type":"station"},{"id":11076206948,"lat":47.55771,"lon":21.5245,"name":"Látókép","type":"halt"},{"id":3122869886,"lat":46.74252,"lon":25.52894,"name":"Lăzarea hc","type":"station"},{"id":2614135481,"lat":45.14793,"lon":24.99109,"name":"Lăzărești","type":"station"},{"id":3161243573,"lat":47.01781,"lon":24.33444,"name":"Lechința","type":"station"},{"id":2393675232,"lat":44.43803,"lon":26.85784,"name":"Lehliu","type":"station"},{"id":7850301365,"lat":47.81669,"lon":26.48223,"name":"Leorda","type":"station"},{"id":3151303445,"lat":44.78377,"lon":25.12415,"name":"Leordeni Argeș","type":"station"},{"id":881859307,"lat":47.78538,"lon":24.25875,"name":"Leordina","type":"station"},{"id":3150221115,"lat":46.98108,"lon":21.8083,"name":"Leș Bihor","type":"station"},{"id":2202458456,"lat":44.31682,"lon":21.94191,"name":"Leskovo","nameLocal":"Лесково","type":"station"},{"id":3124024364,"lat":47.34706,"lon":26.67068,"name":"Lespezi","type":"station"},{"id":7554097473,"lat":47.34676,"lon":26.67119,"name":"Lespezi","type":"station"},{"id":3123929287,"lat":47.31598,"lon":24.69252,"name":"Leșu Ilvei","type":"station"},{"id":507098424,"lat":47.39368,"lon":21.87902,"name":"Létavértes","type":"station"},{"id":3149630849,"lat":47.33812,"lon":23.46583,"name":"Letca","type":"station"},{"id":2255538529,"lat":47.19451,"lon":27.39212,"name":"Lețcani","type":"station"},{"id":13008797247,"lat":46.52184,"lon":26.93412,"name":"Letea h","type":"halt"},{"id":775583828,"lat":44.2001,"lon":24.03801,"name":"Leu Hm.","type":"halt"},{"id":3142623923,"lat":45.57984,"lon":21.30798,"name":"Liebling","type":"station"},{"id":534652118,"lat":45.63329,"lon":27.53847,"name":"Liești","type":"station"},{"id":5252353941,"lat":45.1218,"lon":21.78678,"name":"Lișava","type":"station"},{"id":3124007750,"lat":47.51765,"lon":26.53353,"name":"Liteni","type":"station"},{"id":13567895906,"lat":45.37772,"lon":23.3669,"name":"Livezeni","type":"station"},{"id":808118952,"lat":46.52611,"lon":25.88983,"name":"Livezi Ciuc","type":"station"},{"id":339067183,"lat":45.93878,"lon":24.08762,"name":"Loamneș","type":"station"},{"id":9993048555,"lat":46.43229,"lon":21.23781,"name":"Lőkösháza","type":"station"},{"id":2669248288,"lat":45.34713,"lon":24.27455,"name":"Lotru","type":"station"},{"id":9766382620,"lat":45.9652,"lon":20.75569,"name":"Lovrin","type":"station"},{"id":3123988106,"lat":47.50533,"lon":26.10167,"name":"Lucăcești","type":"station"},{"id":843091035,"lat":46.46737,"lon":24.08902,"name":"Luduș","type":"station"},{"id":8035687527,"lat":45.67987,"lon":21.89667,"name":"Lugoj","type":"station"},{"id":13192858595,"lat":47.6134,"lon":21.07303,"name":"Lukas Hoffmann","type":"station"},{"id":13146328585,"lat":46.43581,"lon":23.4544,"name":"Lunca Arieșului","type":"station"},{"id":855342064,"lat":46.95435,"lon":25.10326,"name":"Lunca Bradului","type":"station"},{"id":2724131774,"lat":45.02019,"lon":23.35903,"name":"Lunca Budieni","type":"station"},{"id":296317783,"lat":46.57852,"lon":25.99587,"name":"Lunca de Mijloc","type":"station"},{"id":1318790724,"lat":46.53801,"lon":25.96395,"name":"Lunca de Sus","type":"station"},{"id":3123934968,"lat":47.36665,"lon":24.96357,"name":"Lunca Ilvei","type":"station"},{"id":879194249,"lat":47.94865,"lon":24.04399,"name":"Lunca la Tisa","type":"halt"},{"id":3124026599,"lat":47.30647,"lon":26.69484,"name":"Lunca Siretului","type":"station"},{"id":2753447523,"lat":45.34298,"lon":23.18504,"name":"Lupeni","type":"station"},{"id":3124116544,"lat":45.35998,"lon":23.23232,"name":"Lupeni Gr. T","type":"station"},{"id":499510998,"lat":48.18991,"lon":21.26864,"name":"Mád","type":"station"},{"id":292538986,"lat":46.48785,"lon":25.74202,"name":"Mădăraș Ciuc Hm","type":"station"},{"id":3122789676,"lat":47.10162,"lon":24.35278,"name":"Măgheruș Șieu","type":"station"},{"id":3144215979,"lat":44.01004,"lon":23.12209,"name":"Maglavit hcv","type":"station"},{"id":3123930927,"lat":47.3793,"lon":24.79316,"name":"Măgura Ilvei","type":"station"},{"id":13429870170,"lat":45.12541,"lon":26.03553,"name":"Măgurele Nord","type":"halt"},{"id":8585760230,"lat":45.09777,"lon":26.04446,"name":"Măgurele Prahova","type":"station"},{"id":1065130884,"lat":46.45089,"lon":20.9693,"name":"Magyarbánhegyes","type":"station"},{"id":2184536778,"lat":46.1746,"lon":20.61041,"name":"Magyarcsanád","type":"station"},{"id":3046019828,"lat":48.14409,"lon":20.592,"name":"Mahóca","type":"station"},{"id":9334329082,"lat":47.80784,"lon":20.40476,"name":"Maklár","type":"station"},{"id":347635122,"lat":46.20449,"lon":20.47471,"name":"Makó","type":"station"},{"id":348022630,"lat":46.23122,"lon":20.49622,"name":"Makó-Újváros","type":"station"},{"id":1742994698,"lat":44.58468,"lon":21.00245,"name":"Mala Krsna","nameLocal":"Мала Крсна","type":"station"},{"id":809644187,"lat":46.03537,"lon":25.82514,"name":"Malnaș Băi","type":"station"},{"id":13356510776,"lat":46.00128,"lon":25.8416,"name":"Malnaș hc","type":"halt"},{"id":534653994,"lat":45.79304,"lon":27.46127,"name":"Malu Alb hc","type":"halt"},{"id":2821099990,"lat":46.14489,"lon":23.97696,"name":"Mănărade","type":"station"},{"id":3152797954,"lat":44.7325,"lon":26.70684,"name":"Manasia","type":"station"},{"id":11573196073,"lat":47.6563,"lon":25.56932,"name":"Mănăstirea Moldovița","type":"station"},{"id":3150454148,"lat":45.8277,"lon":22.0682,"name":"Mănăștur","type":"station"},{"id":1186336721,"lat":47.90571,"lon":26.74711,"name":"Mândrești","type":"station"},{"id":7825109017,"lat":45.31544,"lon":25.99715,"name":"Măneciu","type":"station"},{"id":7825086143,"lat":45.29302,"lon":25.99656,"name":"Măneciu Pământeni","type":"station"},{"id":1962786788,"lat":43.82214,"lon":28.58168,"name":"Mangalia","type":"station"},{"id":9591571726,"lat":45.87571,"lon":27.2144,"name":"Mărășești","type":"station"},{"id":7942054857,"lat":47.87326,"lon":28.23012,"name":"Mărculești","type":"station"},{"id":3149765333,"lat":47.33939,"lon":22.32817,"name":"Marghita","type":"station"},{"id":3150457962,"lat":45.85668,"lon":22.26504,"name":"Margina","type":"station"},{"id":1065129579,"lat":47.85283,"lon":22.01917,"name":"Máriapócs","type":"station"},{"id":2598138469,"lat":47.01873,"lon":24.50126,"name":"Mărișelu","type":"station"},{"id":475574718,"lat":44.23913,"lon":21.0964,"name":"Markovac","nameLocal":"Марковац","type":"station"},{"id":2667569569,"lat":45.70206,"lon":24.361,"name":"Mârșa hc","type":"halt"},{"id":3146060207,"lat":46.82957,"lon":27.26002,"name":"Marseal C-tin Prezan","type":"station"},{"id":1037090348,"lat":47.02083,"lon":20.29197,"name":"Martfű","type":"station"},{"id":3158250446,"lat":45.29175,"lon":26.36235,"name":"Mărunțișu","type":"station"},{"id":3151309017,"lat":44.68592,"lon":25.44314,"name":"Mătăsaru","type":"station"},{"id":415604461,"lat":47.95085,"lon":22.31359,"name":"Mátészalka","type":"station"},{"id":7958563308,"lat":47.79856,"lon":28.94893,"name":"Mateuți","type":"station"},{"id":648935223,"lat":44.25188,"lon":28.27178,"name":"Medgidia","type":"station"},{"id":648939240,"lat":44.24509,"lon":28.31509,"name":"Medgidia P.C.2 h","type":"station"},{"id":344928639,"lat":46.49593,"lon":21.03026,"name":"Medgyesegyháza","type":"station"},{"id":242190943,"lat":46.15999,"lon":24.34955,"name":"Mediaș","type":"station"},{"id":1925347133,"lat":47.77515,"lon":23.12045,"name":"Medieșu Aurit","type":"station"},{"id":7575673963,"lat":44.89686,"lon":22.36901,"name":"Mehadia","type":"station"},{"id":13602228764,"lat":44.89684,"lon":22.36898,"name":"Mehadia","type":"station"},{"id":3123756889,"lat":44.87885,"lon":22.38345,"name":"Mehadia Nouă","type":"station"},{"id":340621220,"lat":46.80636,"lon":23.44483,"name":"Mera","type":"station"},{"id":944524717,"lat":46.92247,"lon":29.05734,"name":"Mereni","type":"station"},{"id":7824068149,"lat":45.22037,"lon":23.38191,"name":"Meri","type":"station"},{"id":2614135482,"lat":44.96545,"lon":24.74978,"name":"Merișani Hm","type":"halt"},{"id":2670416341,"lat":45.45573,"lon":23.23178,"name":"Merișor","type":"station"},{"id":4876789058,"lat":47.45069,"lon":25.33951,"name":"Mestecăniș","type":"station"},{"id":268205547,"lat":46.81479,"lon":21.01301,"name":"Mezőberény","type":"station"},{"id":503340626,"lat":47.82461,"lon":20.91572,"name":"Mezőcsát","type":"station"},{"id":1065130642,"lat":46.31076,"lon":20.81616,"name":"Mezőhegyes","type":"station"},{"id":506540049,"lat":47.84516,"lon":20.66964,"name":"Mezőkeresztes-Mezőnyárád","type":"station"},{"id":1259198882,"lat":46.40798,"lon":20.89989,"name":"Mezőkovácsháza","type":"station"},{"id":247091862,"lat":47.79736,"lon":20.56791,"name":"Mezőkövesd","type":"station"},{"id":1212434089,"lat":47.17608,"lon":21.62593,"name":"Mezőpeterd","type":"station"},{"id":5599738752,"lat":47.01349,"lon":20.61941,"name":"Mezőtúr","type":"station"},{"id":457353128,"lat":48.15697,"lon":21.26751,"name":"Mezőzombor","type":"station"},{"id":2821095136,"lat":46.08944,"lon":24.11197,"name":"Micăsasa","type":"station"},{"id":3149652607,"lat":47.90064,"lon":22.96124,"name":"Micula","type":"station"},{"id":12585336788,"lat":46.35956,"lon":25.79345,"name":"Miercurea Ciuc","type":"station"},{"id":142893066,"lat":46.35967,"lon":25.79391,"name":"Miercurea Ciuc","type":"station"},{"id":810570124,"lat":45.892,"lon":23.79834,"name":"Miercurea Sibiului","type":"station"},{"id":775583652,"lat":44.11891,"lon":24.76775,"name":"Mihăești","type":"station"},{"id":12199515879,"lat":44.11717,"lon":26.08297,"name":"Mihai Bravu","type":"station"},{"id":3144469911,"lat":44.65057,"lon":28.67898,"name":"Mihai Viteazu","type":"station"},{"id":116931867,"lat":46.4702,"lon":25.82166,"name":"Mihăileni Hm","type":"station"},{"id":9885061093,"lat":44.91254,"lon":25.6588,"name":"Mija","type":"station"},{"id":3149578060,"lat":47.77305,"lon":26.05165,"name":"Milișăuți","type":"station"},{"id":10733814817,"lat":46.09383,"lon":21.78697,"name":"Milova","type":"station"},{"id":9330871705,"lat":45.92028,"lon":22.84977,"name":"Mintia","type":"station"},{"id":12613102931,"lat":45.91642,"lon":22.82581,"name":"Mintia h.","type":"halt"},{"id":2614135483,"lat":44.95216,"lon":24.91088,"name":"Mioveni","type":"station"},{"id":648932195,"lat":44.26632,"lon":28.14388,"name":"Mircea Vodă","type":"station"},{"id":3120896180,"lat":47.06125,"lon":26.84201,"name":"Mircești","type":"station"},{"id":1811620305,"lat":47.49929,"lon":23.34075,"name":"Mireșu Mare","type":"station"},{"id":775583770,"lat":44.43383,"lon":24.94521,"name":"Miroși","type":"station"},{"id":1840423254,"lat":47.23126,"lon":23.13249,"name":"Mirșid","type":"station"},{"id":3270362167,"lat":48.10651,"lon":20.80043,"name":"Miskolc-Gömöri","type":"station"},{"id":9480929156,"lat":48.1339,"lon":20.7889,"name":"Miskolc-Repülőtér","type":"station"},{"id":268213797,"lat":48.09871,"lon":20.81094,"name":"Miskolc-Tiszai","type":"station"},{"id":9323403674,"lat":48.10088,"lon":20.70244,"name":"Miskolc, Dorottya utca","type":"station"},{"id":1468442436,"lat":44.99405,"lon":26.43766,"name":"Mizil","type":"station"},{"id":9468773347,"lat":44.4402,"lon":20.69127,"name":"Mladenovac","nameLocal":"Младеновац","type":"station"},{"id":7987399715,"lat":45.85756,"lon":25.93928,"name":"Moacșa","type":"station"},{"id":251660832,"lat":44.63727,"lon":26.21465,"name":"Moara Vlăsiei","type":"station"},{"id":291218763,"lat":47.71475,"lon":24.44302,"name":"Mocănița Vișeu de Sus","type":"station"},{"id":2104396713,"lat":47.69707,"lon":22.64389,"name":"Moftin","type":"station"},{"id":3123918669,"lat":47.20832,"lon":24.25148,"name":"Mogoșeni","type":"station"},{"id":3152782892,"lat":44.53531,"lon":26.02346,"name":"Mogoșoaia","type":"station"},{"id":2667585928,"lat":45.74056,"lon":24.21277,"name":"Mohu Hm","type":"halt"},{"id":1879634465,"lat":46.4694,"lon":26.48831,"name":"Moinești","type":"station"},{"id":3152797871,"lat":44.71781,"lon":26.50901,"name":"Moldoveni","type":"station"},{"id":7845767020,"lat":47.68873,"lon":25.53661,"name":"Moldovița","type":"station"},{"id":3123955489,"lat":47.56619,"lon":25.73344,"name":"Molid","type":"station"},{"id":3020912473,"lat":45.35294,"lon":21.82925,"name":"Moniom","type":"station"},{"id":254318236,"lat":46.96113,"lon":24.70407,"name":"Monor-Gledin","type":"station"},{"id":1259198902,"lat":48.03201,"lon":20.32999,"name":"Mónosbél","type":"station"},{"id":9836163221,"lat":47.39054,"lon":21.77466,"name":"Monostorpályi","type":"station"},{"id":13429875794,"lat":45.09819,"lon":25.42238,"name":"Moțăieni","type":"halt"},{"id":3144213350,"lat":44.03493,"lon":23.18883,"name":"Moțăței","type":"station"},{"id":3120899285,"lat":47.16616,"lon":26.74751,"name":"Muncel","type":"station"},{"id":243737034,"lat":46.09965,"lon":21.0167,"name":"Munor","type":"halt"},{"id":3146002037,"lat":46.59121,"lon":27.7575,"name":"Munteni","type":"station"},{"id":648951303,"lat":44.16613,"lon":28.45155,"name":"Murfatlar hc","type":"station"},{"id":7883417866,"lat":46.2099,"lon":28.01335,"name":"Murgeni","type":"station"},{"id":507098079,"lat":46.75699,"lon":21.03814,"name":"Murony","type":"station"},{"id":13356576710,"lat":44.81862,"lon":23.51142,"name":"Musculești","type":"halt"},{"id":3149780141,"lat":46.48617,"lon":21.50226,"name":"Nădab","type":"station"},{"id":1239968541,"lat":46.51325,"lon":25.83226,"name":"Nădejdea Hm","type":"station"},{"id":3137151583,"lat":46.15999,"lon":20.76593,"name":"Nădlac","type":"station"},{"id":1212434413,"lat":47.52377,"lon":21.76334,"name":"Nagycsere","type":"station"},{"id":1065130072,"lat":48.05414,"lon":22.31132,"name":"Nagydobos","type":"station"},{"id":501798440,"lat":47.86489,"lon":22.3855,"name":"Nagyecsed","type":"station"},{"id":1065130349,"lat":47.87084,"lon":21.82569,"name":"Nagykálló","type":"station"},{"id":507098364,"lat":47.19088,"lon":21.80036,"name":"Nagykereki","type":"station"},{"id":5599753631,"lat":46.97711,"lon":20.74497,"name":"Nagylapos","type":"halt"},{"id":8399367686,"lat":47.56861,"lon":21.48069,"name":"Nagymacs","type":"station"},{"id":1065130601,"lat":46.6727,"lon":20.6745,"name":"Nagyszénás","type":"station"},{"id":929920147,"lat":46.76336,"lon":20.29171,"name":"Nagytőke","type":"station"},{"id":3123923591,"lat":47.28119,"lon":24.4105,"name":"Năsăud","type":"station"},{"id":2614134398,"lat":44.31215,"lon":28.59671,"name":"Năvodari","type":"station"},{"id":2614134399,"lat":44.25633,"lon":28.4658,"name":"Nazarcea","type":"station"},{"id":3146042829,"lat":46.82317,"lon":27.45338,"name":"Negrești Vaslui","type":"station"},{"id":864305673,"lat":43.81688,"lon":28.22381,"name":"Negru Vodă","type":"station"},{"id":8522694362,"lat":45.43137,"lon":26.30614,"name":"Nehoiașu","type":"station"},{"id":648974293,"lat":43.86003,"lon":28.57882,"name":"Neptun","type":"station"},{"id":2192284780,"lat":45.96224,"lon":20.55217,"name":"Nerău","type":"halt"},{"id":7821346701,"lat":44.80692,"lon":20.41785,"name":"New Belgrade","nameLocal":"Нови Београд","type":"station"},{"id":3144467026,"lat":44.37664,"lon":28.38039,"name":"Nicolae Bălcescu","type":"station"},{"id":253038028,"lat":47.14886,"lon":27.57763,"name":"Nicolina","type":"station"},{"id":322601152,"lat":47.24746,"lon":24.29869,"name":"Nimigea","type":"station"},{"id":3120794072,"lat":45.19448,"lon":25.6724,"name":"Nistorești","type":"station"},{"id":3684829729,"lat":45.89407,"lon":24.46012,"name":"Nocrich","type":"station"},{"id":3152757192,"lat":44.78874,"lon":25.55351,"name":"Nucet","type":"station"},{"id":268213782,"lat":47.99237,"lon":20.84041,"name":"Nyékládháza","type":"station"},{"id":1212435195,"lat":47.52389,"lon":22.01674,"name":"Nyírábrány","type":"station"},{"id":501798504,"lat":47.69904,"lon":21.90259,"name":"Nyíradony","type":"station"},{"id":415604493,"lat":47.84246,"lon":22.13111,"name":"Nyírbátor","type":"station"},{"id":268212167,"lat":48.08224,"lon":21.85472,"name":"Nyírbogdány","type":"station"},{"id":3284516683,"lat":47.94654,"lon":21.70515,"name":"Nyíregyháza","type":"station"},{"id":1065129577,"lat":47.94294,"lon":21.74013,"name":"Nyíregyháza külső","type":"station"},{"id":3159360767,"lat":47.9662,"lon":21.68587,"name":"Nyíregyháza-Északi kitérő","type":"station"},{"id":1065130201,"lat":47.7508,"lon":21.98796,"name":"Nyírgelse","type":"station"},{"id":1065130262,"lat":48.05905,"lon":22.20315,"name":"Nyírmada","type":"station"},{"id":3306271374,"lat":48.00513,"lon":21.61567,"name":"Nyírtelek","type":"station"},{"id":3379440684,"lat":47.8556,"lon":29.52469,"name":"Obkhidna","nameLocal":"Обхідна","type":"station"},{"id":5916880473,"lat":44.44941,"lon":26.12461,"name":"Obor","type":"station"},{"id":2222311545,"lat":46.39101,"lon":23.858,"name":"Ocna Mureș","type":"station"},{"id":321259273,"lat":45.85781,"lon":24.06724,"name":"Ocna Sibiului","type":"station"},{"id":4462736349,"lat":46.31065,"lon":25.30139,"name":"Odorhei","type":"station"},{"id":1065130579,"lat":47.94062,"lon":22.04138,"name":"Ófehértó","type":"station"},{"id":3152840633,"lat":44.63117,"lon":27.59066,"name":"Ograda","type":"station"},{"id":2309808765,"lat":45.54871,"lon":22.98985,"name":"Ohaba de Sub Piatră","type":"station"},{"id":507098100,"lat":47.62338,"lon":20.95105,"name":"Ohat-Pusztakócs","type":"station"},{"id":1065130017,"lat":46.89248,"lon":21.33916,"name":"Okány","type":"station"},{"id":1063783451,"lat":48.25826,"lon":21.44812,"name":"Olaszliszka-Tolcsva","type":"station"},{"id":775583746,"lat":44.19025,"lon":25.29215,"name":"Olteni","type":"station"},{"id":908133653,"lat":44.08551,"lon":26.64522,"name":"Oltenița","type":"station"},{"id":7992536484,"lat":46.25904,"lon":26.77925,"name":"Onești","type":"station"},{"id":268670633,"lat":48.12179,"lon":20.9074,"name":"Onga","type":"station"},{"id":2498606016,"lat":47.07006,"lon":21.93618,"name":"Oradea","type":"station"},{"id":3122359995,"lat":47.04314,"lon":21.96276,"name":"Oradea Est","type":"station"},{"id":3150206486,"lat":47.05949,"lon":21.89321,"name":"Oradea Vest","type":"station"},{"id":243490747,"lat":45.86142,"lon":23.21008,"name":"Orăștie","type":"station"},{"id":2565537454,"lat":45.0372,"lon":21.68713,"name":"Oravița","type":"station"},{"id":3120867430,"lat":46.2777,"lon":27.05796,"name":"Orbeni","type":"station"},{"id":2667593089,"lat":45.76137,"lon":23.97164,"name":"Orlat","type":"station"},{"id":342860167,"lat":46.56632,"lon":20.66447,"name":"Orosháza","type":"station"},{"id":274928658,"lat":44.7308,"lon":22.41631,"name":"Orșova","type":"station"},{"id":3046019829,"lat":48.1365,"lon":20.61109,"name":"Ortástető","type":"station"},{"id":3123661664,"lat":45.96334,"lon":21.1902,"name":"Orțișoara","type":"station"},{"id":1843613438,"lat":44.53473,"lon":21.05619,"name":"Osipaonica","nameLocal":"Осипаоница","type":"station"},{"id":3122363621,"lat":47.03942,"lon":22.03407,"name":"Oșorhei","type":"station"},{"id":11042175686,"lat":45.096,"lon":24.36669,"name":"Ostroveni h","type":"halt"},{"id":7104358627,"lat":44.53745,"lon":26.08269,"name":"Otopeni","type":"halt"},{"id":3875013378,"lat":44.87552,"lon":20.54454,"name":"Ovča","nameLocal":"Овча","type":"station"},{"id":648923948,"lat":44.37472,"lon":27.87838,"name":"Ovidiu","type":"station"},{"id":268215883,"lat":48.22249,"lon":20.29469,"name":"Ózd","type":"station"},{"id":1863117045,"lat":45.79955,"lon":25.83972,"name":"Ozun","type":"station"},{"id":1260637598,"lat":45.79944,"lon":25.83995,"name":"Ozun","type":"station"},{"id":8664204585,"lat":44.53447,"lon":25.96491,"name":"P. Mac. R1 Buciumeni","type":"station"},{"id":13431268626,"lat":45.638,"lon":25.50317,"name":"P.O. Lustic","type":"halt"},{"id":6657180532,"lat":44.34263,"lon":26.3786,"name":"P.O. Podu Pitarului","type":"station"},{"id":3120853712,"lat":45.93204,"lon":27.21595,"name":"Pădureni Putna","type":"station"},{"id":2515451515,"lat":45.59828,"lon":21.19254,"name":"Pădureni Timiș","type":"station"},{"id":2126303810,"lat":44.47936,"lon":26.02333,"name":"Pajura","type":"station"},{"id":2400211878,"lat":46.53468,"lon":26.12967,"name":"Palanca","type":"station"},{"id":9552944028,"lat":44.16526,"lon":28.5839,"name":"Palas","type":"station"},{"id":3158588388,"lat":46.93021,"lon":26.20415,"name":"Pângărați","type":"station"},{"id":13249533581,"lat":44.47806,"lon":26.19186,"name":"Pantelimon","type":"station"},{"id":3046043050,"lat":48.11356,"lon":20.66022,"name":"Papírgyár","type":"station"},{"id":2724149796,"lat":45.11055,"lon":23.34282,"name":"Parangu","type":"station"},{"id":5719664386,"lat":44.43312,"lon":25.94185,"name":"Parc Divertisment Chiajna","type":"station"},{"id":7031055984,"lat":44.5209,"lon":26.00986,"name":"Parc Mogoșoaia","type":"halt"},{"id":7917308647,"lat":46.9081,"lon":29.01188,"name":"Parc Revaca","type":"station"},{"id":2104396715,"lat":45.27869,"lon":26.55128,"name":"Pârscov","type":"station"},{"id":3151255823,"lat":44.77114,"lon":24.90517,"name":"Pârvu Hc.","type":"station"},{"id":3151255199,"lat":44.73312,"lon":24.89684,"name":"Pârvu Hm.","type":"halt"},{"id":3124166912,"lat":44.46806,"lon":26.26553,"name":"Pasărea","type":"station"},{"id":3120900494,"lat":47.25691,"lon":26.72454,"name":"Pașcani","type":"station"},{"id":1468505195,"lat":45.32449,"lon":26.35761,"name":"Pătârlagele","type":"station"},{"id":3151305961,"lat":44.74384,"lon":25.20858,"name":"Pătroaia","type":"station"},{"id":268212804,"lat":48.15879,"lon":21.99704,"name":"Pátroha","type":"station"},{"id":2669007852,"lat":46.10711,"lon":21.61088,"name":"Păuliș","type":"station"},{"id":3137147338,"lat":46.17413,"lon":21.08627,"name":"Pecica","type":"station"},{"id":3140829861,"lat":45.598,"lon":21.05372,"name":"Peciu Nou","type":"station"},{"id":415597056,"lat":47.99521,"lon":22.56709,"name":"Penyige","type":"station"},{"id":9563626592,"lat":46.03656,"lon":20.87199,"name":"Periam","type":"station"},{"id":3152837580,"lat":44.58128,"lon":27.25422,"name":"Perieți","type":"station"},{"id":3120818759,"lat":44.67809,"lon":25.99708,"name":"Periș","type":"station"},{"id":2614134401,"lat":44.42439,"lon":27.50583,"name":"Perișoru","type":"station"},{"id":3613910219,"lat":45.19913,"lon":20.38409,"name":"Perlez","nameLocal":"Перлез","type":"yard"},{"id":2618004596,"lat":45.78674,"lon":25.19854,"name":"Perșani","type":"station"},{"id":11236006956,"lat":43.9068,"lon":28.6201,"name":"Pescăruș Hc.","type":"halt"},{"id":418165050,"lat":47.28781,"lon":27.74504,"name":"Petrești","type":"station"},{"id":1445767057,"lat":47.61306,"lon":29.66475,"name":"Petrivka","nameLocal":"Петрівка","type":"station"},{"id":12590138244,"lat":45.42323,"lon":23.36617,"name":"Petroşani","type":"station"},{"id":218092997,"lat":45.42313,"lon":23.3659,"name":"Petroșani","type":"station"},{"id":2198010447,"lat":46.94746,"lon":22.70091,"name":"Piatra Craiului","type":"station"},{"id":303278705,"lat":46.92717,"lon":26.36027,"name":"Piatra Neamț","type":"station"},{"id":775583854,"lat":44.36802,"lon":24.25491,"name":"Piatra Olt","type":"station"},{"id":3146016906,"lat":47.05543,"lon":27.57281,"name":"Picioru Lupului","type":"station"},{"id":775583971,"lat":44.31896,"lon":23.95607,"name":"Pielești","type":"station"},{"id":2324540378,"lat":45.30684,"lon":23.38383,"name":"Pietrele Albe","type":"station"},{"id":13262584020,"lat":45.18365,"lon":25.43958,"name":"Pietroșița railway station","nameLocal":"Gara Pietroșița","type":"station"},{"id":9875388365,"lat":47.32277,"lon":27.89209,"name":"Pîrlița","type":"station"},{"id":534651250,"lat":45.50643,"lon":27.72006,"name":"Piscu hc","type":"station"},{"id":8607130227,"lat":44.84759,"lon":24.88761,"name":"Pitești","type":"station"},{"id":2259046204,"lat":44.86989,"lon":24.86123,"name":"Pitești Nord","type":"station"},{"id":775583707,"lat":44.31101,"lon":23.85368,"name":"Plaiul Vulcănești","type":"station"},{"id":648921979,"lat":44.59793,"lon":27.67737,"name":"Platonești","type":"station"},{"id":8620502842,"lat":44.9447,"lon":25.98765,"name":"Ploieşti Crâng","type":"station"},{"id":1194083375,"lat":44.93641,"lon":26.08135,"name":"Ploiești Est","type":"station"},{"id":2281857395,"lat":44.93947,"lon":26.05851,"name":"Ploiești Est Post 1","type":"station"},{"id":7617946979,"lat":44.95368,"lon":26.02717,"name":"Ploiești Nord","type":"station"},{"id":7617995917,"lat":44.92506,"lon":26.02981,"name":"Ploiești Sud","type":"station"},{"id":8522582388,"lat":44.9032,"lon":26.01437,"name":"Ploiești Triaj","type":"station"},{"id":1193557412,"lat":44.92453,"lon":25.99458,"name":"Ploiești Vest","type":"station"},{"id":7703667874,"lat":45.04557,"lon":25.9514,"name":"Plopeni","type":"station"},{"id":3158261076,"lat":45.06047,"lon":25.96922,"name":"Plopeni Sat","type":"station"},{"id":3123906988,"lat":44.80148,"lon":23.33447,"name":"Plopșoru","type":"station"},{"id":8413447977,"lat":45.14058,"lon":27.52194,"name":"Plopu","type":"station"},{"id":775583935,"lat":44.03064,"lon":25.14272,"name":"Plosca Hm.","type":"station"},{"id":3123756541,"lat":45.11108,"lon":22.29597,"name":"Poarta","type":"station"},{"id":3378772890,"lat":47.80957,"lon":29.51407,"name":"Poberezhzhia","nameLocal":"Побережжя","type":"station"},{"id":507098220,"lat":47.28833,"lon":21.79306,"name":"Pocsaj-Esztár","type":"station"},{"id":3144199928,"lat":44.24329,"lon":23.78353,"name":"Podari","type":"station"},{"id":12258527039,"lat":47.75,"lon":29.52893,"name":"Podilsk","nameLocal":"Подільськ","type":"station"},{"id":3378778876,"lat":47.76091,"lon":29.52422,"name":"Podilsk-Pivn.","nameLocal":"Подільськ-Північний","type":"station"},{"id":3158582920,"lat":46.79645,"lon":26.61549,"name":"Podoleni","type":"station"},{"id":2252705611,"lat":47.20907,"lon":27.28377,"name":"Podu Iloaei","type":"station"},{"id":886311778,"lat":46.17525,"lon":23.69114,"name":"Podu Mureș","type":"station"},{"id":7937016154,"lat":45.66179,"lon":24.29864,"name":"Podu Olt","type":"station"},{"id":2104333955,"lat":44.88483,"lon":26.99899,"name":"Pogoanele","type":"station"},{"id":3123930787,"lat":47.36906,"lon":24.74145,"name":"Poiana Ilvei","type":"station"},{"id":8467537167,"lat":43.92531,"lon":23.06859,"name":"Poiana Mare","type":"station"},{"id":3473124866,"lat":47.31248,"lon":25.13136,"name":"Poiana Stampei","type":"station"},{"id":2200185435,"lat":46.91402,"lon":22.86141,"name":"Poieni","type":"station"},{"id":2724122208,"lat":44.99215,"lon":23.4854,"name":"Pojogeni","type":"station"},{"id":3123952053,"lat":47.52544,"lon":25.47553,"name":"Pojorâta","type":"station"},{"id":2670412106,"lat":45.50468,"lon":23.11991,"name":"Ponor","type":"halt"},{"id":2727331229,"lat":44.98621,"lon":24.08543,"name":"Popești Vâlcea","type":"station"},{"id":1260955709,"lat":47.86807,"lon":22.56845,"name":"Porcsalma-Tyukod","type":"station"},{"id":367073676,"lat":47.65797,"lon":20.65412,"name":"Poroszló","type":"station"},{"id":9014135584,"lat":44.03785,"lon":23.64553,"name":"Portărești","type":"station"},{"id":2667566462,"lat":45.76609,"lon":24.456,"name":"Porumbacu","type":"station"},{"id":3149655948,"lat":47.9511,"lon":22.98557,"name":"Porumbești","type":"station"},{"id":7728874296,"lat":45.28099,"lon":25.61771,"name":"Posada","type":"station"},{"id":8068929829,"lat":46.26621,"lon":28.15042,"name":"Post 8 km","type":"station"},{"id":3709907313,"lat":46.89238,"lon":29.44932,"name":"Postul de călătorie 1501 Km","type":"station"},{"id":549211832,"lat":44.47096,"lon":24.60337,"name":"Potcoava","type":"station"},{"id":1742994694,"lat":44.61403,"lon":21.18708,"name":"Pozarevac","nameLocal":"Пожаревац","type":"station"},{"id":1845412259,"lat":44.28746,"lon":22.58801,"name":"Prahovo","nameLocal":"Прахово","type":"station"},{"id":3160902407,"lat":46.55146,"lon":25.11417,"name":"Praid","type":"station"},{"id":2983660745,"lat":44.44505,"lon":26.75232,"name":"Preasna","type":"station"},{"id":1936798179,"lat":45.50506,"lon":25.57493,"name":"Predeal","type":"station"},{"id":7738216550,"lat":45.73855,"lon":25.77781,"name":"Prejmer","type":"station"},{"id":751969140,"lat":45.73836,"lon":25.77795,"name":"Prejmer","type":"station"},{"id":3123960664,"lat":47.53779,"lon":25.65742,"name":"Prisaca Dornei","type":"station"},{"id":12732971595,"lat":47.38763,"lon":26.6409,"name":"Probota","type":"halt"},{"id":228247436,"lat":43.64323,"lon":26.48072,"name":"Prostorno Train Station","nameLocal":"ЖП гара Просторно","type":"station"},{"id":3123775154,"lat":44.60651,"lon":22.92187,"name":"Prunișor","type":"station"},{"id":2292894902,"lat":46.28314,"lon":28.23339,"name":"Prut","type":"station"},{"id":2292892066,"lat":46.27314,"lon":28.18859,"name":"Prut-2","type":"station"},{"id":7745047633,"lat":45.07534,"lon":25.43083,"name":"Pucioasa","type":"station"},{"id":3120855207,"lat":46.00536,"lon":27.20069,"name":"Pufești","type":"station"},{"id":1887349123,"lat":48.10466,"lon":20.63477,"name":"Puskaporos","type":"station"},{"id":268202972,"lat":47.32793,"lon":21.12853,"name":"Püspökladány","type":"station"},{"id":5599734083,"lat":47.09288,"lon":20.45576,"name":"Pusztapó","type":"halt"},