[{"id":13528379826,"lat":40.7502,"lon":30.37653,"name":"32 Evler","type":"halt"},{"id":12165174337,"lat":40.11205,"lon":44.44889,"name":"9th kilometer","nameLocal":"9-րդ կիլոմետր","type":"station"},{"id":2560606964,"lat":41.52009,"lon":26.73138,"name":"Abalar","type":"station"},{"id":10781691523,"lat":40.26975,"lon":44.61715,"name":"Abovyan","nameLocal":"Աբովյան","type":"station"},{"id":2726063373,"lat":37.00404,"lon":35.31898,"name":"Adana","type":"station"},{"id":7700053726,"lat":40.77491,"lon":30.40031,"name":"Adapazarı","type":"station"},{"id":2632461402,"lat":39.40082,"lon":38.38253,"name":"Adatepe","type":"halt"},{"id":10160022336,"lat":37.08784,"lon":37.35866,"name":"Adliye","type":"station"},{"id":11675949250,"lat":38.2913,"lon":27.14787,"name":"Adnan Menderes Havalimanı","type":"station"},{"id":1016618867,"lat":38.76709,"lon":30.5355,"name":"Afyonkarahisar Şehir Garı","type":"station"},{"id":977917658,"lat":39.80681,"lon":30.76722,"name":"Ağapınar","type":"station"},{"id":1363282182,"lat":42.03379,"lon":43.83153,"name":"Agara","nameLocal":"აგარა","type":"station"},{"id":10778863046,"lat":40.60743,"lon":43.71451,"name":"Aghin","nameLocal":"Աղին","type":"station"},{"id":2627436892,"lat":41.40342,"lon":32.09478,"name":"Ahatlı","type":"halt"},{"id":2630084631,"lat":38.39031,"lon":29.1033,"name":"Ahmetler","type":"station"},{"id":2629875444,"lat":38.51622,"lon":27.93594,"name":"Ahmetli Tren İstasyonu","type":"station"},{"id":12387720478,"lat":38.73173,"lon":40.21964,"name":"Akbulut","type":"halt"},{"id":1029552677,"lat":38.29088,"lon":38.04446,"name":"Akçadağ","type":"station"},{"id":13381770534,"lat":37.26688,"lon":37.28584,"name":"Akçagöze","type":"station"},{"id":2106364149,"lat":36.70518,"lon":38.94986,"name":"Akçakale","type":"station"},{"id":1433313760,"lat":39.09984,"lon":37.73492,"name":"Akçamağara","type":"halt"},{"id":9048288995,"lat":39.78215,"lon":35.89209,"name":"Akdağmadeni YHT","type":"station"},{"id":2106364144,"lat":37.01263,"lon":40.40677,"name":"Akdoğan","type":"station"},{"id":2683739237,"lat":39.04946,"lon":37.71737,"name":"Akgedik","type":"station"},{"id":929120022,"lat":41.9354,"lon":43.49137,"name":"Akhaldaba","nameLocal":"ახალდაბა","type":"station"},{"id":8765021384,"lat":38.90806,"lon":27.79053,"name":"Akhisar","type":"station"},{"id":1324641305,"lat":38.90796,"lon":27.79072,"name":"Akhisar","type":"station"},{"id":10782858985,"lat":41.14896,"lon":44.78434,"name":"Akhtala","nameLocal":"Ախթալա","type":"station"},{"id":2036394530,"lat":40.14375,"lon":28.08894,"name":"Aksakal","type":"station"},{"id":142421346,"lat":38.36992,"lon":31.44215,"name":"Akşehir","type":"station"},{"id":13247813127,"lat":40.73985,"lon":43.62341,"name":"Akyaka","type":"station"},{"id":1039189717,"lat":41.46959,"lon":32.09411,"name":"Akyamaç","type":"halt"},{"id":12954017781,"lat":35.96232,"lon":38.86008,"name":"Al Furqon","type":"station"},{"id":12593514482,"lat":36.48957,"lon":42.62905,"name":"Al Wailiya Railway Station","nameLocal":"محطة قطار الوائلية","type":"station"},{"id":1870300033,"lat":38.35774,"lon":28.51507,"name":"Alaşehir İstasyonu","type":"station"},{"id":10782858980,"lat":41.09817,"lon":44.66998,"name":"Alaverdi","nameLocal":"Ալավերդի","type":"station"},{"id":8428053111,"lat":38.46063,"lon":27.12146,"name":"Alaybey","type":"station"},{"id":1844213207,"lat":39.39544,"lon":30.10551,"name":"Alayunt","type":"station"},{"id":540037219,"lat":36.21434,"lon":37.1475,"name":"Aleppo","nameLocal":"حلب","type":"station"},{"id":12954308513,"lat":36.21417,"lon":37.14765,"name":"Aleppo","nameLocal":"حلب","type":"station"},{"id":9727693135,"lat":40.84523,"lon":25.87882,"name":"Alexandroupoli Port","nameLocal":"Αλεξανδρούπολη Λιμάνι","type":"station"},{"id":142218952,"lat":38.76421,"lon":30.55308,"name":"Ali Çetinkaya Garı","type":"station"},{"id":4556804484,"lat":38.78891,"lon":26.96698,"name":"Aliağa","type":"station"},{"id":11932795680,"lat":38.8273,"lon":27.01903,"name":"Aliağa OSB","type":"station"},{"id":2438905434,"lat":40.19433,"lon":33.5678,"name":"Alibey","type":"station"},{"id":2698765850,"lat":40.53487,"lon":30.29325,"name":"Alifuatpaşa","type":"station"},{"id":13361855300,"lat":39.48695,"lon":29.67364,"name":"Aliköy","type":"station"},{"id":11368513462,"lat":40.20515,"lon":44.55051,"name":"Almast","nameLocal":"Ալմաստ","type":"station"},{"id":13233090414,"lat":39.61732,"lon":39.19292,"name":"Alp","type":"station"},{"id":1114702237,"lat":39.76802,"lon":30.95411,"name":"Alpu","type":"station"},{"id":11132878358,"lat":41.36646,"lon":27.14231,"name":"Alpullu","type":"station"},{"id":11675949253,"lat":38.43863,"lon":27.14812,"name":"Alsancak Gar","type":"station"},{"id":1019524637,"lat":39.66382,"lon":39.67764,"name":"Altınbaşak","type":"halt"},{"id":9665946451,"lat":41.04741,"lon":28.74773,"name":"Altınşehir","type":"station"},{"id":2784873940,"lat":39.66875,"lon":40.19673,"name":"Altunkent","type":"halt"},{"id":13537163197,"lat":39.96263,"lon":41.57817,"name":"Alvar","type":"station"},{"id":1807927360,"lat":40.65463,"lon":35.8141,"name":"Amasya","type":"station"},{"id":2852454543,"lat":37.85835,"lon":40.5228,"name":"Ambar","type":"halt"},{"id":9727692300,"lat":41.29562,"lon":26.44314,"name":"Amorio","nameLocal":"Αμόριο","type":"halt"},{"id":13348039398,"lat":38.05571,"lon":34.76695,"name":"Andaval","type":"station"},{"id":10778863047,"lat":40.46527,"lon":43.64349,"name":"Ani","nameLocal":"Անի","type":"station"},{"id":9747501490,"lat":39.93596,"lon":32.84342,"name":"Ankara","type":"station"},{"id":11056845809,"lat":39.93493,"lon":32.84335,"name":"Ankara YHT","nameLocal":"Ankara YHT Garı","type":"station"},{"id":2460341500,"lat":40.64806,"lon":43.97601,"name":"Anushavan station","nameLocal":"Անուշավան կայարան","type":"station"},{"id":10778863050,"lat":40.32563,"lon":43.66482,"name":"Aragats","nameLocal":"Արագած","type":"station"},{"id":10762249201,"lat":40.18376,"lon":43.9185,"name":"Araks","nameLocal":"Արաքս","type":"station"},{"id":13347970371,"lat":38.24028,"lon":35.04719,"name":"Araplı","type":"station"},{"id":3065361683,"lat":39.84055,"lon":44.70521,"name":"Ararat","nameLocal":"Արարատ","type":"station"},{"id":10780687807,"lat":40.84732,"lon":44.38709,"name":"Archut","nameLocal":"Արջուտ","type":"yard"},{"id":2069722229,"lat":38.30967,"lon":31.71845,"name":"Argıthan","type":"station"},{"id":8930677540,"lat":40.71314,"lon":30.35584,"name":"Arifiye","type":"station"},{"id":1033126614,"lat":38.17788,"lon":27.49622,"name":"Arıkbaşı","type":"station"},{"id":521150853,"lat":37.4607,"lon":32.92808,"name":"Arıkören","type":"station"},{"id":13372031491,"lat":38.7339,"lon":40.18825,"name":"Arındık","type":"halt"},{"id":10762249202,"lat":40.1461,"lon":44.03205,"name":"Armavir","nameLocal":"Արմավիր","type":"station"},{"id":11368513441,"lat":40.1071,"lon":44.17893,"name":"Artashar","nameLocal":"Արտաշար","type":"station"},{"id":10780676055,"lat":39.96143,"lon":44.55417,"name":"Artashat","nameLocal":"Արտաշատ","type":"station"},{"id":11368513444,"lat":40.30033,"lon":43.76826,"name":"Arteni","nameLocal":"Արտենի","type":"station"},{"id":1805807412,"lat":40.11407,"lon":36.30079,"name":"Artova","type":"station"},{"id":2639602235,"lat":37.82913,"lon":40.43635,"name":"Arzuoğlu","type":"halt"},{"id":12542668090,"lat":36.0011,"lon":43.23212,"name":"Ashura Railway Station","nameLocal":"محطة قطار عاشوراء","type":"station"},{"id":10132990395,"lat":41.08138,"lon":29.055,"name":"Aşiyan","type":"station"},{"id":2044818133,"lat":39.92185,"lon":40.68268,"name":"Aşkale","type":"station"},{"id":12387720330,"lat":38.77902,"lon":41.08686,"name":"Asmakaya","type":"station"},{"id":6325698566,"lat":40.98023,"lon":28.85623,"name":"Ataköy","type":"station"},{"id":282909259,"lat":40.89879,"lon":29.16919,"name":"Atalar","type":"station"},{"id":738753118,"lat":38.49904,"lon":27.05314,"name":"Atasanayi","type":"station"},{"id":1033065320,"lat":37.88337,"lon":28.21193,"name":"Atça İstasyonu","type":"station"},{"id":2232271626,"lat":40.79809,"lon":33.08299,"name":"Atkaracalar","type":"station"},{"id":775315333,"lat":41.80734,"lon":44.79407,"name":"Avchala","nameLocal":"ავჭალა","type":"station"},{"id":1208397892,"lat":39.33012,"lon":37.73175,"name":"Avşar","type":"station"},{"id":13397853851,"lat":40.82574,"lon":35.64025,"name":"Ayaz","type":"halt"},{"id":1033065272,"lat":37.84829,"lon":27.84201,"name":"Aydın","type":"station"},{"id":12909877408,"lat":37.84824,"lon":27.84201,"name":"Aydın","type":"station"},{"id":5084128493,"lat":40.85229,"lon":29.2932,"name":"Aydıntepe","type":"station"},{"id":11368513436,"lat":39.87226,"lon":44.6655,"name":"Aygavan","nameLocal":"Այգավան","type":"station"},{"id":13381649733,"lat":37.18351,"lon":36.61966,"name":"Ayran","type":"station"},{"id":4929219587,"lat":37.37106,"lon":33.66626,"name":"Ayrancı","type":"station"},{"id":1898304351,"lat":41.00017,"lon":29.03026,"name":"Ayrılık Çeşmesi","type":"station"},{"id":3050697993,"lat":38.63589,"lon":27.21192,"name":"Ayvacık","type":"station"},{"id":2704811021,"lat":39.93723,"lon":29.97989,"name":"Ayvalı","type":"station"},{"id":1426057756,"lat":39.43687,"lon":37.31052,"name":"Ayvaz","type":"station"},{"id":13528379825,"lat":40.77103,"lon":30.39107,"name":"Aziz Duran Parkı","type":"halt"},{"id":12144121424,"lat":39.45343,"lon":30.02029,"name":"Azot","type":"station"},{"id":12112964591,"lat":41.39772,"lon":27.10334,"name":"Babaeski YHT Garı","type":"construction"},{"id":13399622653,"lat":38.45131,"lon":44.79667,"name":"Babkean","nameLocal":"بابکان","type":"station"},{"id":6942688153,"lat":39.926,"lon":32.92299,"name":"Bağderesi","type":"station"},{"id":3063529081,"lat":39.44048,"lon":38.46715,"name":"Bağıştaş","type":"station"},{"id":2775053914,"lat":37.18707,"lon":36.55891,"name":"Bahçe","type":"station"},{"id":1211785004,"lat":39.413,"lon":37.95514,"name":"Bahçeli","type":"station"},{"id":13528379828,"lat":40.71782,"lon":30.36745,"name":"Bahçelievler","type":"halt"},{"id":13270950265,"lat":38.63707,"lon":35.20186,"name":"Bahçesaray","type":"station"},{"id":9665946456,"lat":41.0844,"lon":28.67881,"name":"Bahçeşehir","type":"station"},{"id":12387684325,"lat":38.68243,"lon":42.01486,"name":"Bahçetepe","type":"station"},{"id":12228171644,"lat":41.41229,"lon":26.82238,"name":"Bahçıvanova","type":"station"},{"id":2627439042,"lat":41.33757,"lon":32.09377,"name":"Bakacakkadi","type":"halt"},{"id":2631293412,"lat":39.0414,"lon":27.74742,"name":"Bakir","type":"halt"},{"id":5885475439,"lat":40.98036,"lon":28.87243,"name":"Bakırköy","type":"station"},{"id":13496014159,"lat":41.27382,"lon":32.16473,"name":"Balastocağı","type":"station"},{"id":1033938313,"lat":39.64691,"lon":27.88854,"name":"Balıkesir","type":"station"},{"id":13437313623,"lat":41.19857,"lon":32.39118,"name":"Balıkısık","type":"station"},{"id":4394447169,"lat":39.52407,"lon":29.0951,"name":"Balıköy","type":"station"},{"id":1038519101,"lat":39.90869,"lon":33.72056,"name":"Balışıh","type":"station"},{"id":1991061657,"lat":38.80947,"lon":30.34355,"name":"Balmahmut İstasyonu","type":"station"},{"id":2201637031,"lat":38.73561,"lon":29.75331,"name":"Banaz İstasyonu","type":"station"},{"id":13066965373,"lat":40.35077,"lon":27.95937,"name":"Bandırma Gar","type":"station"},{"id":10576917342,"lat":40.35213,"lon":27.96548,"name":"Bandırma Şehir","type":"station"},{"id":1035673748,"lat":38.09187,"lon":29.97392,"name":"Baraklı","type":"halt"},{"id":6328169453,"lat":40.89026,"lon":29.1775,"name":"Başak","type":"station"},{"id":165991741,"lat":37.83363,"lon":29.54921,"name":"Başçeşme Durağı","type":"halt"},{"id":6067508752,"lat":40.70587,"lon":43.42921,"name":"Başgedik","type":"halt"},{"id":2435856875,"lat":38.56516,"lon":38.82623,"name":"Baskil","type":"station"},{"id":1841500458,"lat":38.86125,"lon":30.18852,"name":"Başkimse İstasyonu","type":"station"},{"id":13345351413,"lat":38.48453,"lon":35.15044,"name":"Başköy","type":"station"},{"id":8072437221,"lat":38.42245,"lon":27.1439,"name":"Basmane railway station","nameLocal":"Basmane","type":"station"},{"id":158529657,"lat":37.16915,"lon":37.32274,"name":"Başpınar","type":"station"},{"id":10159892609,"lat":37.16687,"lon":37.33452,"name":"Başpınar","type":"station"},{"id":1018999007,"lat":37.87858,"lon":41.12268,"name":"Batman","type":"station"},{"id":2705917179,"lat":38.4335,"lon":38.36989,"name":"Battalgazi","type":"station"},{"id":6199471015,"lat":41.65839,"lon":41.67782,"name":"Batumi-Central","nameLocal":"ბათუმი-ცენტრალი","type":"station"},{"id":618763898,"lat":40.69398,"lon":43.77207,"name":"Bayandur","nameLocal":"Բայանդուր","type":"station"},{"id":12887415750,"lat":38.21282,"lon":27.64956,"name":"Bayındır","type":"station"},{"id":1976917814,"lat":38.46391,"lon":27.1644,"name":"Bayraklı","type":"station"},{"id":1022802015,"lat":39.58062,"lon":36.61948,"name":"Bedirli","type":"station"},{"id":6981627652,"lat":39.9315,"lon":32.75013,"name":"Behiçbey","type":"station"},{"id":2106364150,"lat":36.83201,"lon":38.56401,"name":"Bekçiler Istasyon","type":"station"},{"id":442532879,"lat":37.35531,"lon":34.91078,"name":"Belemedik","type":"station"},{"id":8440806257,"lat":38.03079,"lon":27.43316,"name":"Belevi","type":"station"},{"id":10242044766,"lat":40.46121,"lon":42.92075,"name":"Benliahmet","type":"station"},{"id":13351322432,"lat":37.75707,"lon":34.52921,"name":"Bereket","type":"station"},{"id":11931710023,"lat":39.10136,"lon":27.20243,"name":"Bergama","type":"station"},{"id":11931710022,"lat":39.08374,"lon":27.12299,"name":"Bergama Otogar","type":"station"},{"id":2195395254,"lat":37.96431,"lon":41.33144,"name":"Beşiri","type":"station"},{"id":13372416452,"lat":39.26101,"lon":27.59224,"name":"Beyce","type":"station"},{"id":13414188676,"lat":39.28949,"lon":27.60767,"name":"Beyce","type":"station"},{"id":1803640762,"lat":38.83456,"lon":35.2041,"name":"Beydeğirmeni","type":"station"},{"id":1927013931,"lat":38.73299,"lon":40.11933,"name":"Beyhan","type":"station"},{"id":10159892635,"lat":37.11988,"lon":37.38476,"name":"Beylerbeyi","type":"station"},{"id":1891369937,"lat":39.60023,"lon":31.958,"name":"Beylikköprü","type":"station"},{"id":1037719716,"lat":39.70423,"lon":31.18925,"name":"Beylikova","type":"station"},{"id":13381705406,"lat":37.28873,"lon":36.79158,"name":"Beyoğlu","type":"station"},{"id":31678663,"lat":41.02834,"lon":28.97399,"name":"Beyoğlu Station, Tünel Line","nameLocal":"Beyoğlu","type":"station"},{"id":2679004379,"lat":39.69448,"lon":31.69651,"name":"Biçer","type":"station"},{"id":1697786687,"lat":38.74935,"lon":26.96128,"name":"Biçerova","type":"station"},{"id":2857536506,"lat":40.11539,"lon":30.00054,"name":"Bilecik","type":"station"},{"id":3573965694,"lat":40.13551,"lon":30.00927,"name":"Bilecik YHT","type":"station"},{"id":1018997848,"lat":37.85277,"lon":40.66199,"name":"Bismil","type":"station"},{"id":1794391919,"lat":37.80217,"lon":29.20859,"name":"Böceli","type":"station"},{"id":1024612743,"lat":41.13648,"lon":36.1784,"name":"Boğaziçi","type":"halt"},{"id":10132990392,"lat":41.08509,"lon":29.04587,"name":"Boğaziçi Üniversitesi/Hisarüstü","type":"station"},{"id":12576453388,"lat":38.75524,"lon":35.32218,"name":"Boğazköprü","type":"station"},{"id":13271001915,"lat":38.75349,"lon":35.3178,"name":"Boğazköprü","type":"station"},{"id":87863868,"lat":38.75226,"lon":35.31379,"name":"Bogazkopru Muselles (364+074)","type":"halt"},{"id":1807867563,"lat":40.73317,"lon":35.77362,"name":"Boğazköy","type":"station"},{"id":130028657,"lat":37.45521,"lon":33.87762,"name":"Böğecik","type":"station"},{"id":2627465680,"lat":41.16035,"lon":32.51723,"name":"Bolkuş","type":"station"},{"id":2718797605,"lat":37.88761,"lon":34.5625,"name":"Bor","type":"station"},{"id":1202092210,"lat":41.84733,"lon":43.40756,"name":"Borjomi-Freight","nameLocal":"ბორჯომი სატვირთო","type":"station"},{"id":929095249,"lat":41.84166,"lon":43.38514,"name":"Borjomi-Parki","nameLocal":"ბორჯომი-პარკი","type":"station"},{"id":5272471218,"lat":40.95393,"lon":29.09492,"name":"Bostancı","type":"station"},{"id":1020960459,"lat":39.51204,"lon":37.00891,"name":"Bostankaya","type":"station"},{"id":1035593588,"lat":37.88345,"lon":30.5459,"name":"Bozanönü","type":"station"},{"id":2633427933,"lat":39.32601,"lon":37.39203,"name":"Bozarmut","type":"station"},{"id":13171455282,"lat":37.8363,"lon":40.3089,"name":"Bozdemir","type":"station"},{"id":12387720331,"lat":38.86655,"lon":40.8881,"name":"Bozkanat","type":"station"},{"id":11931710026,"lat":39.051,"lon":27.1093,"name":"Bozköy","type":"station"},{"id":165993895,"lat":37.82744,"lon":29.61265,"name":"Bozkurt","type":"station"},{"id":1634040345,"lat":39.90426,"lon":30.03728,"name":"Bozüyük","type":"station"},{"id":2857538264,"lat":39.88053,"lon":30.04267,"name":"Bozüyük YHT","type":"station"},{"id":1811163401,"lat":37.95266,"lon":28.73853,"name":"Buharkent","type":"station"},{"id":1030808774,"lat":37.72332,"lon":30.28189,"name":"Burdur","type":"station"},{"id":13543252649,"lat":39.36426,"lon":38.31247,"name":"Burmahan","type":"halt"},{"id":12523026533,"lat":40.27367,"lon":28.92334,"name":"Bursa Hızlı Tren Garı","type":"station"},{"id":1458111234,"lat":40.27368,"lon":28.92389,"name":"Bursa Tren Garı","type":"station"},{"id":4934435244,"lat":40.71023,"lon":30.11034,"name":"Büyük Derbent","type":"station"},{"id":12112974486,"lat":41.31012,"lon":27.56565,"name":"Büyükkarıştıran","type":"construction"},{"id":1804305830,"lat":39.83038,"lon":40.18453,"name":"Çadırkaya","type":"station"},{"id":2679015583,"lat":39.54955,"lon":34.69804,"name":"Caferli","type":"station"},{"id":2057459653,"lat":38.58796,"lon":39.36331,"name":"Çağlar","type":"station"},{"id":2711219111,"lat":37.62379,"lon":34.28806,"name":"Çakmak","type":"station"},{"id":2313668954,"lat":39.54798,"lon":38.8358,"name":"Çakşur","type":"halt"},{"id":2631296012,"lat":39.43938,"lon":27.63975,"name":"Çalıköy","type":"station"},{"id":2627457479,"lat":41.22175,"lon":32.22622,"name":"Çamlaralti","type":"halt"},{"id":13270281101,"lat":39.94196,"lon":36.39436,"name":"Çamlıbel","type":"station"},{"id":1032705881,"lat":37.87999,"lon":27.37792,"name":"Çamlık","type":"station"},{"id":13249471379,"lat":40.96718,"lon":43.30473,"name":"Canbaz","type":"station"},{"id":13249471514,"lat":41.13016,"lon":43.30117,"name":"Canbazlar","type":"station"},{"id":1909769310,"lat":39.60997,"lon":28.04863,"name":"Çandır","type":"station"},{"id":13261185143,"lat":39.32185,"lon":37.23892,"name":"Candoğan","type":"station"},{"id":2627502412,"lat":40.59633,"lon":33.61409,"name":"Çankırı","type":"station"},{"id":11228793732,"lat":41.00554,"lon":28.98301,"name":"Cankurtaran","type":"station"},{"id":2311652966,"lat":38.05128,"lon":30.27391,"name":"Çapalı Istasyonu","type":"station"},{"id":166012795,"lat":37.82154,"lon":29.67894,"name":"Çardak","type":"station"},{"id":13495836091,"lat":40.81212,"lon":33.12598,"name":"Çardak","type":"halt"},{"id":12887415752,"lat":38.17242,"lon":27.72083,"name":"Çatal","type":"station"},{"id":2627312112,"lat":41.49914,"lon":31.87456,"name":"Çatalağzı","type":"station"},{"id":2625916043,"lat":41.15059,"lon":28.4802,"name":"Çatalca","type":"station"},{"id":2069723681,"lat":38.37945,"lon":31.84645,"name":"Çavuşcugöl","type":"station"},{"id":1891195203,"lat":38.62834,"lon":31.03555,"name":"Çay","type":"station"},{"id":3043451548,"lat":38.51734,"lon":44.1683,"name":"Çaybağı","type":"station"},{"id":1039187621,"lat":41.42419,"lon":32.09534,"name":"Çaycuma","type":"station"},{"id":2623370290,"lat":41.25997,"lon":28.12174,"name":"Çayırdere","type":"station"},{"id":5085864847,"lat":40.81053,"lon":29.34737,"name":"Çayırova","type":"station"},{"id":6942688149,"lat":39.93327,"lon":32.87597,"name":"Cebeci","type":"station"},{"id":2627443516,"lat":41.2173,"lon":32.30137,"name":"Cebeciler","type":"halt"},{"id":2909589816,"lat":39.64524,"lon":39.34931,"name":"Cebesoy","type":"halt"},{"id":13183865200,"lat":38.56278,"lon":43.45629,"name":"Çeken","type":"station"},{"id":1117003097,"lat":37.70056,"lon":37.50895,"name":"Çelik","type":"station"},{"id":2632433427,"lat":41.15751,"lon":36.20424,"name":"Çelikalan","type":"halt"},{"id":2632406619,"lat":40.87232,"lon":35.63516,"name":"Çeltek Kömür İşl.","type":"halt"},{"id":1038144963,"lat":39.8911,"lon":34.00011,"name":"Çerikli","type":"station"},{"id":947975087,"lat":40.81139,"lon":32.88444,"name":"Çerkeş","type":"station"},{"id":13140863305,"lat":41.27948,"lon":28.00991,"name":"Çerkezköy","type":"station"},{"id":450512236,"lat":41.27927,"lon":28.01065,"name":"Çerkezköy Tren İstasyonu","type":"station"},{"id":12660718806,"lat":41.00281,"lon":28.94024,"name":"Cerrahpaşa","type":"station"},{"id":1208398419,"lat":39.24906,"lon":37.60785,"name":"Çetinkaya","type":"station"},{"id":282909973,"lat":40.91008,"lon":29.15599,"name":"Cevizli","type":"station"},{"id":13142516199,"lat":37.01806,"lon":35.81728,"name":"Ceyhan","type":"station"},{"id":2100176564,"lat":36.84357,"lon":40.05215,"name":"Ceylanpınar","type":"station"},{"id":900946845,"lat":41.73378,"lon":41.73246,"name":"Chakvi","nameLocal":"ჩაქვი","type":"station"},{"id":10780692693,"lat":40.40262,"lon":44.64742,"name":"Charentsavan","nameLocal":"Չարենցավան","type":"station"},{"id":9727692282,"lat":41.4501,"lon":26.55582,"name":"Cheimonio","nameLocal":"Χειμώνιο","type":"station"},{"id":2719449995,"lat":37.51167,"lon":34.77368,"name":"Çiftehan","type":"station"},{"id":3058109590,"lat":41.10557,"lon":36.161,"name":"Çiftlik","type":"halt"},{"id":1211648706,"lat":39.3494,"lon":38.18869,"name":"Çiğdem","type":"halt"},{"id":2834285349,"lat":38.59758,"lon":30.26685,"name":"Çiğiltepe Istasyon","type":"station"},{"id":6940170594,"lat":38.49166,"lon":27.06343,"name":"Çiğli","type":"station"},{"id":1810231503,"lat":41.07403,"lon":32.66536,"name":"Cildikısık","type":"station"},{"id":859885516,"lat":38.58113,"lon":44.09082,"name":"Çimenova","type":"station"},{"id":12387684326,"lat":38.71895,"lon":41.62598,"name":"Çizmeburun","type":"station"},{"id":2700454296,"lat":39.95059,"lon":36.40003,"name":"Çizözü","type":"halt"},{"id":1069777998,"lat":36.63619,"lon":37.47628,"name":"Çobanbey","type":"station"},{"id":282815862,"lat":38.68823,"lon":30.73887,"name":"Çobanlar","type":"station"},{"id":1844214777,"lat":39.26794,"lon":30.17852,"name":"Çöğürler","type":"station"},{"id":2639593297,"lat":37.84845,"lon":40.80266,"name":"Çöltepe","type":"station"},{"id":1906693567,"lat":41.17769,"lon":27.77909,"name":"Çorlu","type":"station"},{"id":13140863306,"lat":41.17774,"lon":27.7784,"name":"Çorlu","type":"station"},{"id":13017874758,"lat":40.51687,"lon":34.90364,"name":"Çorum","type":"station"},{"id":13039115881,"lat":40.51686,"lon":34.90344,"name":"Çorum","type":"station"},{"id":1807561185,"lat":41.08392,"lon":36.16269,"name":"Çukurbük","type":"station"},{"id":2707000941,"lat":39.82363,"lon":30.30494,"name":"Çukurhisar","type":"station"},{"id":2631297461,"lat":39.5729,"lon":27.7586,"name":"Çukurhüseyin","type":"station"},{"id":11675949251,"lat":38.26405,"lon":27.16299,"name":"Cumaovası","type":"station"},{"id":2028035074,"lat":37.57201,"lon":32.7846,"name":"Çumra","type":"station"},{"id":2755862129,"lat":39.44469,"lon":38.03558,"name":"Cürek","type":"station"},{"id":4394455302,"lat":39.56804,"lon":28.37104,"name":"Dada","type":"station"},{"id":11368513443,"lat":40.2303,"lon":43.87682,"name":"Dalarik","nameLocal":"Դալարիկ","type":"station"},{"id":5085899451,"lat":40.7914,"lon":29.39191,"name":"Darıca","type":"station"},{"id":204787245,"lat":37.90211,"lon":29.86239,"name":"Dazkırı","type":"station"},{"id":1211656614,"lat":39.34078,"lon":38.23329,"name":"Dazlak","type":"halt"},{"id":2713003987,"lat":39.20641,"lon":30.29404,"name":"Değirmenözü","type":"station"},{"id":4394446381,"lat":39.48959,"lon":29.19764,"name":"Değirmisaz Istasyonu","type":"station"},{"id":12538984911,"lat":39.93255,"lon":34.03173,"name":"Delice","type":"station"},{"id":13011493552,"lat":39.93252,"lon":34.03185,"name":"Delice","type":"station"},{"id":13316501828,"lat":41.23214,"lon":36.26426,"name":"Demirciköy","type":"station"},{"id":1868890037,"lat":39.46086,"lon":29.86276,"name":"Demirciören","type":"station"},{"id":2755862130,"lat":39.40802,"lon":38.1078,"name":"Demirdağ","type":"station"},{"id":1817844381,"lat":39.16015,"lon":37.69316,"name":"Demiriz","type":"station"},{"id":2691613017,"lat":39.57902,"lon":40.16282,"name":"Demirkapı","type":"station"},{"id":590521315,"lat":38.46804,"lon":27.09643,"name":"Demirköprü","type":"station"},{"id":13596670707,"lat":41.35672,"lon":26.64787,"name":"Demirköprü","type":"station"},{"id":4394446357,"lat":39.50308,"lon":29.30147,"name":"Demirli","type":"station"},{"id":6942688150,"lat":39.94007,"lon":32.88319,"name":"Demirlibahçe","type":"station"},{"id":2705972173,"lat":37.96274,"lon":41.50678,"name":"Demirlikuyu","type":"halt"},{"id":1018997728,"lat":37.93271,"lon":41.15552,"name":"Demirlipınar","type":"halt"},{"id":13409598545,"lat":36.64748,"lon":36.213,"name":"Denizciler","type":"station"},{"id":1033799242,"lat":37.78698,"lon":29.09097,"name":"Denizli","type":"station"},{"id":13040894854,"lat":38.67067,"lon":29.64163,"name":"Derbent","type":"station"},{"id":2627429217,"lat":41.55029,"lon":32.07727,"name":"Derecikören","type":"halt"},{"id":10820574849,"lat":40.7545,"lon":29.83407,"name":"Derince","type":"station"},{"id":8094704070,"lat":38.20331,"lon":27.16668,"name":"Develi","type":"station"},{"id":153208097,"lat":38.65791,"lon":43.8166,"name":"Dibekli","type":"station"},{"id":9727692296,"lat":41.35223,"lon":26.51123,"name":"Didymoteicho","nameLocal":"Διδυμότειχο","type":"station"},{"id":9727761370,"lat":41.70611,"lon":26.29737,"name":"Dikaia","nameLocal":"Δίκαια","type":"station"},{"id":2683736626,"lat":38.44496,"lon":38.25821,"name":"Dilek","type":"station"},{"id":9727761367,"lat":41.69334,"lon":26.37776,"name":"Dilofos","nameLocal":"Δίλοφος","type":"halt"},{"id":2191227870,"lat":38.06559,"lon":30.15636,"name":"Dinar","type":"station"},{"id":1211647863,"lat":39.38403,"lon":38.11413,"name":"Divriği","type":"station"},{"id":6128179234,"lat":37.91365,"lon":40.21574,"name":"Diyarbakır","type":"station"},{"id":13522088113,"lat":40.62474,"lon":30.33231,"name":"Doğançay","type":"station"},{"id":1029554178,"lat":38.08884,"lon":37.87474,"name":"Doğanşehir","type":"station"},{"id":1843521618,"lat":39.13169,"lon":30.38048,"name":"Döğer","type":"station"},{"id":13382347659,"lat":40.72962,"lon":43.73817,"name":"Doğukapı","type":"station"},{"id":13147171949,"lat":36.82398,"lon":36.19561,"name":"Dörtyol","type":"station"},{"id":10159892616,"lat":37.14977,"lon":37.3637,"name":"Dülük","type":"station"},{"id":13542860427,"lat":39.6677,"lon":39.37706,"name":"Dumanlı","type":"station"},{"id":1811447239,"lat":40.28546,"lon":33.52941,"name":"Dümbelek","type":"station"},{"id":2201574181,"lat":38.84786,"lon":29.98527,"name":"Dumlupınar","type":"station"},{"id":440894064,"lat":37.11986,"lon":35.00192,"name":"Durak","type":"station"},{"id":2691654097,"lat":40.7268,"lon":43.50628,"name":"Duraklı","type":"halt"},{"id":1626731519,"lat":39.54729,"lon":28.65299,"name":"Dursunbey","type":"station"},{"id":2632465907,"lat":39.34821,"lon":38.26347,"name":"Dutluk","type":"halt"},{"id":3073615343,"lat":41.8443,"lon":44.62452,"name":"Dzegvi","nameLocal":"ძეგვი","type":"station"},{"id":1863673324,"lat":42.07943,"lon":43.15831,"name":"Dzirula","nameLocal":"ძირულა","type":"station"},{"id":11132878357,"lat":41.65521,"lon":26.58051,"name":"Edirne","type":"station"},{"id":4556769264,"lat":38.50734,"lon":27.04598,"name":"Egekent","type":"station"},{"id":168181327,"lat":38.5606,"lon":27.04436,"name":"Egekent 2","type":"station"},{"id":3556586658,"lat":38.73649,"lon":40.28953,"name":"Ekerek","type":"halt"},{"id":2441229024,"lat":38.30608,"lon":30.18713,"name":"Ekinova","type":"station"},{"id":1018799487,"lat":38.66484,"lon":39.22278,"name":"Elazığ","type":"station"},{"id":1028215425,"lat":36.9426,"lon":37.98522,"name":"Elifoğlu","type":"station"},{"id":11309220660,"lat":39.92411,"lon":33.22771,"name":"Elmadağ","type":"station"},{"id":11056845810,"lat":39.94845,"lon":33.20422,"name":"Elmadağ YHT","type":"station"},{"id":2705902010,"lat":38.0173,"lon":37.73219,"name":"Elmali","type":"station"},{"id":8004018096,"lat":39.95856,"lon":32.61219,"name":"Elvankent","type":"station"},{"id":2629175271,"lat":38.62449,"lon":27.14819,"name":"Emiralem","type":"station"},{"id":13096553867,"lat":39.49256,"lon":29.36235,"name":"Emirler","type":"station"},{"id":13365924590,"lat":39.77352,"lon":30.48482,"name":"Enveriye","type":"station"},{"id":2691621936,"lat":39.915,"lon":40.20382,"name":"Erbaş","type":"station"},{"id":13183864609,"lat":38.65933,"lon":43.65726,"name":"Erçek","type":"station"},{"id":2643792763,"lat":37.50581,"lon":34.057,"name":"Ereğli","type":"station"},{"id":1908362611,"lat":40.97167,"lon":29.07637,"name":"Erenköy","type":"station"},{"id":1829725374,"lat":38.23294,"lon":39.75502,"name":"Ergani","type":"station"},{"id":2632458725,"lat":39.57209,"lon":38.86854,"name":"Eriç","type":"station"},{"id":6982425707,"lat":39.95576,"lon":32.63029,"name":"Eryaman","type":"station"},{"id":13285012546,"lat":40.60731,"lon":35.7949,"name":"Eryatağı","type":"station"},{"id":13142574206,"lat":36.9746,"lon":36.13024,"name":"Erzin","type":"station"},{"id":1019524264,"lat":39.73367,"lon":39.4931,"name":"Erzincan","type":"station"},{"id":13239613528,"lat":39.91562,"lon":41.26853,"name":"Erzurum","type":"station"},{"id":8062356443,"lat":38.33694,"lon":27.13647,"name":"ESBAŞ","type":"station"},{"id":2627509575,"lat":39.89258,"lon":32.46785,"name":"Esenkent","type":"station"},{"id":13542939764,"lat":39.42346,"lon":37.2267,"name":"Eski Karasar","type":"halt"},{"id":2633437752,"lat":39.43462,"lon":37.28812,"name":"Eskiköy","type":"station"},{"id":2711318024,"lat":40.95676,"lon":32.5335,"name":"Eskipazar","type":"station"},{"id":2707315513,"lat":39.77962,"lon":30.50497,"name":"Eskişehir","type":"station"},{"id":1033323504,"lat":38.39838,"lon":28.96896,"name":"Eşme İstasyonu","type":"station"},{"id":1339863753,"lat":39.94925,"lon":32.66309,"name":"Etimesgut","type":"station"},{"id":1688809279,"lat":38.02705,"lon":29.92136,"name":"Evciler","type":"station"},{"id":13353340109,"lat":39.13209,"lon":35.02131,"name":"Fehimli","type":"station"},{"id":6328169452,"lat":40.97885,"lon":29.04873,"name":"Feneryolu","type":"station"},{"id":9727693133,"lat":40.89113,"lon":26.18504,"name":"Ferres","nameLocal":"Φέρρες","type":"station"},{"id":969662630,"lat":37.09884,"lon":36.63869,"name":"Fevzipaşa","type":"station"},{"id":3544707833,"lat":41.55991,"lon":32.02121,"name":"Filyos","type":"station"},{"id":2474813423,"lat":38.44089,"lon":38.51225,"name":"Fırat","type":"station"},{"id":10159892642,"lat":37.11212,"lon":37.38074,"name":"Fıstıklık","type":"station"},{"id":1027924561,"lat":40.9729,"lon":28.78761,"name":"Florya","type":"station"},{"id":6328169449,"lat":40.96783,"lon":28.79699,"name":"Florya Akvaryum","type":"station"},{"id":9727693127,"lat":41.05312,"lon":26.27918,"name":"Fylakto","nameLocal":"Φυλακτό","type":"halt"},{"id":4394451678,"lat":39.54494,"lon":28.46928,"name":"Gazellidere","type":"station"},{"id":6080817083,"lat":39.94031,"lon":32.79631,"name":"Gazi","type":"station"},{"id":6981627649,"lat":39.94402,"lon":32.81254,"name":"Gazi Mahallesi","type":"station"},{"id":10160022343,"lat":37.07378,"lon":37.38281,"name":"Gaziantep Gar","type":"station"},{"id":3309385594,"lat":38.32628,"lon":27.13997,"name":"Gaziemir","type":"station"},{"id":2713013256,"lat":38.93193,"lon":30.5007,"name":"Gazlıgöl","type":"station"},{"id":6764109168,"lat":40.78387,"lon":29.41078,"name":"Gebze","type":"station"},{"id":1019524422,"lat":39.57616,"lon":39.94941,"name":"Geçit","type":"halt"},{"id":2705922832,"lat":38.45769,"lon":38.60075,"name":"Gemici","type":"halt"},{"id":11309220598,"lat":38.75185,"lon":40.55764,"name":"Genç","type":"station"},{"id":13397207694,"lat":40.43811,"lon":33.70058,"name":"Germece","type":"station"},{"id":2407158710,"lat":37.87331,"lon":27.59505,"name":"Germencik","type":"station"},{"id":12909877437,"lat":37.87323,"lon":27.59575,"name":"Germencik","type":"station"},{"id":2632431401,"lat":41.05805,"lon":36.10922,"name":"Germiyan","type":"halt"},{"id":3895093679,"lat":40.39557,"lon":43.62736,"name":"Getap","nameLocal":"Գետափ","type":"yard"},{"id":2275058706,"lat":38.14397,"lon":39.93622,"name":"Geyik","type":"station"},{"id":1849880459,"lat":38.49508,"lon":39.51971,"name":"Gezin","type":"station"},{"id":2627375885,"lat":41.53403,"lon":31.95683,"name":"Göbü","type":"halt"},{"id":2038251331,"lat":36.69392,"lon":39.38907,"name":"Goçar Istasyon","type":"station"},{"id":1211778407,"lat":39.40765,"lon":37.90839,"name":"Göçentaşı","type":"station"},{"id":13543265469,"lat":39.64629,"lon":39.7529,"name":"Gökbayır","type":"halt"},{"id":2038274135,"lat":36.77521,"lon":39.85111,"name":"Gökçayır Istasyon","type":"station"},{"id":2627438755,"lat":41.30675,"lon":32.13847,"name":"Gökçebey","type":"station"},{"id":2848543145,"lat":39.61187,"lon":28.97972,"name":"Gökçedağ İstasyonu","type":"station"},{"id":2711401351,"lat":39.65377,"lon":30.38712,"name":"Gökçekısık","type":"station"},{"id":4045268405,"lat":39.59442,"lon":27.82605,"name":"Gökköy","type":"station"},{"id":8853491811,"lat":41.17701,"lon":28.88366,"name":"Göktürk","type":"station"},{"id":1806876783,"lat":37.78855,"lon":37.63524,"name":"Gölbaşı","type":"station"},{"id":2705954495,"lat":38.46209,"lon":39.39128,"name":"Gölcük","type":"halt"},{"id":1874204778,"lat":40.80771,"lon":33.4095,"name":"Göllüce","type":"station"},{"id":10160022350,"lat":37.0743,"lon":37.40542,"name":"Göllüce","type":"station"},{"id":13361763989,"lat":37.90087,"lon":30.49378,"name":"Göltaş","type":"station"},{"id":13338125400,"lat":38.83553,"lon":35.64716,"name":"Gömeç","type":"station"},{"id":1365140470,"lat":42.02006,"lon":43.72675,"name":"Gomi","nameLocal":"გომი","type":"station"},{"id":1030923375,"lat":37.84799,"lon":29.11664,"name":"Goncalı","type":"station"},{"id":13361758030,"lat":37.84259,"lon":29.11914,"name":"Goncalı Müselles","type":"station"},{"id":8184042614,"lat":41.97266,"lon":44.10889,"name":"Gori","nameLocal":"გორი","type":"station"},{"id":1544856210,"lat":39.51776,"lon":36.6624,"name":"Gözmen","type":"halt"},{"id":6690847579,"lat":40.97921,"lon":29.06263,"name":"Göztepe","type":"station"},{"id":882253614,"lat":41.94735,"lon":44.27673,"name":"Grakali","nameLocal":"გრაკალი","type":"station"},{"id":5085864850,"lat":40.8076,"lon":29.36402,"name":"GTÜ-Fatih","type":"station"},{"id":2679029399,"lat":39.42882,"lon":36.56004,"name":"Gücük","type":"station"},{"id":2313668703,"lat":39.50764,"lon":38.74209,"name":"Güllübağ","type":"station"},{"id":2106364151,"lat":36.71418,"lon":38.72661,"name":"Gültepe Istasyon","type":"station"},{"id":2719418720,"lat":37.51479,"lon":34.62112,"name":"Gümüş","type":"station"},{"id":2389665217,"lat":40.69054,"lon":33.53235,"name":"Gümüşdüven","type":"station"},{"id":1677624022,"lat":37.89354,"lon":30.41236,"name":"Gümüşgün","type":"station"},{"id":2726740663,"lat":39.37391,"lon":37.86138,"name":"Güneş","type":"station"},{"id":2630078685,"lat":38.38411,"lon":28.86266,"name":"Güneyköy","type":"station"},{"id":13142527107,"lat":37.05741,"lon":35.95144,"name":"Günyazı","type":"station"},{"id":2022790949,"lat":36.92053,"lon":40.26286,"name":"Gürpınar Istasyon","type":"station"},{"id":11953547054,"lat":40.25636,"lon":29.20098,"name":"Gürsu Hızlı Tren İstasyonu","type":"station"},{"id":1458111230,"lat":40.25677,"lon":29.20113,"name":"Gürsu Hızlı Tren İstasyonu","type":"station"},{"id":13249471308,"lat":40.82891,"lon":43.25462,"name":"Güvercin","type":"station"},{"id":1805904000,"lat":40.14903,"lon":36.00607,"name":"Güzelbeyli","type":"station"},{"id":5084119890,"lat":40.85683,"lon":29.28361,"name":"Güzelyalı","type":"station"},{"id":13361875601,"lat":39.48429,"lon":29.65195,"name":"Güzelyurt","type":"station"},{"id":10778863051,"lat":40.78765,"lon":43.85996,"name":"Gyumri","nameLocal":"Գյումրի","type":"station"},{"id":1807826065,"lat":40.8523,"lon":35.63308,"name":"Hacıbayram","type":"station"},{"id":2187061286,"lat":37.25217,"lon":34.98084,"name":"Hacıkırı","type":"station"},{"id":2631287259,"lat":38.74772,"lon":27.60709,"name":"Hacırahmanlı","type":"station"},{"id":10780685466,"lat":41.11014,"lon":44.71086,"name":"Haghpat","nameLocal":"Հաղպատ","type":"station"},{"id":2253949587,"lat":41.01837,"lon":28.76653,"name":"Halkalı","type":"station"},{"id":2067210172,"lat":38.43522,"lon":27.16885,"name":"Halkapınar","type":"station"},{"id":12542668392,"lat":36.16638,"lon":43.24947,"name":"Hamam Al Alil Railway Station","nameLocal":"محطة قطار حمام العليل","type":"station"},{"id":13372021672,"lat":41.00418,"lon":32.6227,"name":"Hanköy","type":"station"},{"id":13297057668,"lat":39.4556,"lon":36.63054,"name":"Hanlı","type":"station"},{"id":11132878353,"lat":41.92252,"lon":25.9241,"name":"Harmanli","nameLocal":"Харманли","type":"station"},{"id":11132878360,"lat":41.93173,"lon":25.9093,"name":"Harmanli Central","nameLocal":"Харманли-център","type":"halt"},{"id":4319806492,"lat":39.79309,"lon":30.61125,"name":"Hasanbey","type":"station"},{"id":3063500757,"lat":38.9279,"lon":37.88039,"name":"Hasançelebi","type":"station"},{"id":2691631732,"lat":39.97679,"lon":41.68127,"name":"Hasankale","type":"station"},{"id":8180647241,"lat":38.69001,"lon":27.01756,"name":"Hatundere","type":"station"},{"id":6981627664,"lat":39.94209,"lon":32.68832,"name":"Hava","type":"station"},{"id":12621085718,"lat":37.97381,"lon":41.84555,"name":"Havaalanı","type":"proposed"},{"id":13397771361,"lat":41.502,"lon":32.09037,"name":"Havalimanı","type":"halt"},{"id":8634566619,"lat":40.96571,"lon":35.6671,"name":"Havza","type":"station"},{"id":13154916640,"lat":37.57932,"lon":37.45423,"name":"Haydarlı","type":"station"},{"id":11368513440,"lat":40.06819,"lon":44.30891,"name":"Haykashen","nameLocal":"Հայկաշեն","type":"station"},{"id":1433312576,"lat":38.81072,"lon":37.92777,"name":"Hekimhan","type":"station"},{"id":2562030343,"lat":40.78408,"lon":29.61632,"name":"Hereke","type":"station"},{"id":5388472393,"lat":38.42694,"lon":27.15511,"name":"Hilal","type":"station"},{"id":8078790237,"lat":38.42605,"lon":27.15436,"name":"Hilal","type":"station"},{"id":1203605825,"lat":38.90859,"lon":35.08384,"name":"Himmetdede","type":"station"},{"id":7528826155,"lat":39.945,"lon":32.826,"name":"Hipodrom","type":"station"},{"id":2090688265,"lat":40.12584,"lon":42.24105,"name":"Hızırilyas","type":"station"},{"id":13381705350,"lat":38.7169,"lon":40.38509,"name":"Hodan","type":"halt"},{"id":2691634203,"lat":40.0408,"lon":42.16245,"name":"Horasan","type":"station"},{"id":11242318472,"lat":38.62669,"lon":27.40318,"name":"Horozköy","type":"station"},{"id":1671168620,"lat":37.91479,"lon":28.59135,"name":"Horsunlu Istasyon","type":"station"},{"id":10781691531,"lat":40.51603,"lon":44.7571,"name":"Hrazdan","nameLocal":"Հրազդան","type":"station"},{"id":2459294203,"lat":38.15923,"lon":34.91332,"name":"Hüyük","type":"station"},{"id":2639614199,"lat":36.88449,"lon":34.82,"name":"Huzurkent","type":"station"},{"id":2671847082,"lat":41.21451,"lon":32.26688,"name":"Ibrıcak","type":"halt"},{"id":5084138614,"lat":40.84569,"lon":29.30004,"name":"İçmeler","type":"station"},{"id":617374869,"lat":40.93782,"lon":29.11425,"name":"İdealtepe","type":"station"},{"id":2713010662,"lat":39.01349,"lon":30.4032,"name":"İhsaniye","type":"station"},{"id":1022808796,"lat":39.28609,"lon":36.23565,"name":"İhsanlı","type":"station"},{"id":1874203950,"lat":40.71376,"lon":33.45718,"name":"Ildızım","type":"station"},{"id":1847251719,"lat":38.29069,"lon":31.91023,"name":"Ilgın","type":"station"},{"id":3063572644,"lat":39.47217,"lon":38.55653,"name":"İliç","type":"station"},{"id":2009271321,"lat":37.81172,"lon":27.48382,"name":"Ilıca","type":"halt"},{"id":13236848823,"lat":39.95105,"lon":41.10333,"name":"Ilıca (Aziziye)","type":"station"},{"id":1038614210,"lat":41.4796,"lon":31.82251,"name":"İnağzı","type":"halt"},{"id":1033324775,"lat":38.42103,"lon":29.22679,"name":"İnay İstasyonu","type":"station"},{"id":2716065683,"lat":38.62881,"lon":35.19649,"name":"İncesu","type":"station"},{"id":13270950266,"lat":38.56455,"lon":35.18845,"name":"İncesu OSB","type":"station"},{"id":2544618727,"lat":36.98395,"lon":35.43507,"name":"Incirlik","nameLocal":"İncirlik","type":"station"},{"id":13378087230,"lat":36.98404,"lon":35.43512,"name":"İncirlik","type":"station"},{"id":1033065811,"lat":37.85384,"lon":27.72505,"name":"İncirliova","type":"station"},{"id":8077616543,"lat":38.36887,"lon":27.14152,"name":"İnkılap","type":"station"},{"id":2706780621,"lat":39.8438,"lon":30.1412,"name":"İnönü","type":"station"},{"id":7933918564,"lat":39.9347,"lon":33.39329,"name":"Irmak","type":"station"},{"id":1033064947,"lat":37.89514,"lon":28.26777,"name":"İsabeyli","type":"halt"},{"id":13147602619,"lat":36.72392,"lon":36.21358,"name":"İsdemir","type":"station"},{"id":2631287870,"lat":38.75686,"lon":27.62759,"name":"İshakçelebi","type":"halt"},{"id":2627368287,"lat":41.51377,"lon":31.89446,"name":"Işikveren","type":"halt"},{"id":13149734633,"lat":36.58727,"lon":36.18132,"name":"İskenderun","type":"station"},{"id":13381681917,"lat":37.03068,"lon":36.63666,"name":"İslahiye","type":"station"},{"id":1952707128,"lat":40.86887,"lon":32.62737,"name":"İsmetpaşa","type":"station"},{"id":1035592982,"lat":37.77192,"lon":30.56305,"name":"Isparta","type":"station"},{"id":9665946458,"lat":41.06296,"lon":28.69939,"name":"Ispartakule","type":"station"},{"id":11065364597,"lat":40.76139,"lon":29.9177,"name":"İzmit","type":"station"},{"id":13369738280,"lat":39.91036,"lon":33.83875,"name":"İzzettin","type":"station"},{"id":4672234236,"lat":35.8418,"lon":39.4402,"name":"Jadidat Khabur","nameLocal":"جديدة خابور","type":"station"},{"id":902313866,"lat":42.07478,"lon":41.90745,"name":"Jumati","nameLocal":"ჯუმათი","type":"station"},{"id":2625912908,"lat":41.21551,"lon":28.3647,"name":"Kabakça","type":"station"},{"id":1805182557,"lat":39.28662,"lon":37.66253,"name":"Kabakçevliği","type":"station"},{"id":1961475136,"lat":38.12748,"lon":30.08701,"name":"Kabaklı Durağı","type":"halt"},{"id":2705905300,"lat":38.02384,"lon":37.80614,"name":"Kadili","type":"station"},{"id":1811249593,"lat":38.31721,"lon":32.18314,"name":"Kadınhanı","type":"station"},{"id":13150054609,"lat":37.564,"lon":36.93072,"name":"Kahramanmaraş","type":"station"},{"id":3895093710,"lat":40.57302,"lon":44.75177,"name":"Kakavadzor","nameLocal":"Կաքավաձոր","type":"yard"},{"id":2290672906,"lat":37.82715,"lon":29.41471,"name":"Kaklık","type":"station"},{"id":1811029435,"lat":40.0764,"lon":33.44504,"name":"Kalecik","type":"station"},{"id":7933809115,"lat":39.6914,"lon":36.75856,"name":"Kalın","type":"station"},{"id":2679020381,"lat":38.8847,"lon":35.14171,"name":"Kalkancık","type":"station"},{"id":2784878392,"lat":39.20396,"lon":37.63,"name":"Kalkım","type":"halt"},{"id":10782858979,"lat":40.8626,"lon":44.05443,"name":"Kaltakhchi","nameLocal":"Ղալթախչի","type":"station"},{"id":10781691522,"lat":40.22978,"lon":44.55279,"name":"Kanaker","nameLocal":"Քանաքեռ","type":"station"},{"id":2691626332,"lat":39.9107,"lon":40.84027,"name":"Kandilli","type":"station"},{"id":1818128276,"lat":39.27603,"lon":37.45086,"name":"Kangal","type":"station"},{"id":2679016922,"lat":39.28318,"lon":34.88254,"name":"Kanlıca","type":"station"},{"id":2631289794,"lat":38.87205,"lon":27.74412,"name":"Kapaklı","type":"station"},{"id":2705895896,"lat":37.97109,"lon":37.67087,"name":"Kapıdere","type":"station"},{"id":13184388993,"lat":38.51013,"lon":44.29519,"name":"Kapıköy","type":"station"},{"id":11132878356,"lat":41.71902,"lon":26.36158,"name":"Kapıkule","type":"station"},{"id":2627336043,"lat":41.4711,"lon":31.80361,"name":"Kapuz","type":"halt"},{"id":11368513461,"lat":40.5735,"lon":44.7516,"name":"Kaqavadzor","nameLocal":"Կաքավաձոր","type":"station"},{"id":2631285877,"lat":38.68465,"lon":27.52728,"name":"Karaağaçlı","type":"station"},{"id":1433311182,"lat":38.56427,"lon":38.93576,"name":"Karaali","type":"halt"},{"id":2839342782,"lat":36.88026,"lon":36.14195,"name":"Karabasamak","type":"station"},{"id":1810292465,"lat":41.19544,"lon":32.61044,"name":"Karabük","type":"station"},{"id":2639607450,"lat":36.84598,"lon":34.70881,"name":"Karacailyas","type":"station"},{"id":2090688163,"lat":40.02423,"lon":42.00449,"name":"Karaçuha","type":"station"},{"id":1426057762,"lat":39.42127,"lon":37.36289,"name":"Karagöl","type":"station"},{"id":4319545783,"lat":39.78241,"lon":30.40111,"name":"Karagözler","type":"station"},{"id":1014378262,"lat":37.19136,"lon":34.93928,"name":"Karaisalıbucağı","type":"station"},{"id":3050755938,"lat":38.4476,"lon":38.56499,"name":"Karakol","type":"halt"},{"id":282824090,"lat":40.00041,"lon":30.00792,"name":"Karaköy","type":"station"},{"id":31678662,"lat":41.02286,"lon":28.97404,"name":"Karaköy Station, Tünel Line","nameLocal":"Karaköy","type":"station"},{"id":12999694156,"lat":38.07753,"lon":30.20888,"name":"Karakuyu","type":"station"},{"id":3051784418,"lat":37.63397,"lon":34.48418,"name":"Karalar","type":"station"},{"id":13297068806,"lat":39.67523,"lon":36.6437,"name":"Karalıköy","type":"station"},{"id":1861513015,"lat":37.19366,"lon":33.21507,"name":"Karaman","type":"station"},{"id":2679015726,"lat":39.5757,"lon":34.57943,"name":"Karaosman","type":"station"},{"id":2679025074,"lat":39.18209,"lon":35.95411,"name":"Karaözü","type":"station"},{"id":11549112483,"lat":39.61276,"lon":32.18334,"name":"Karapınar","type":"station"},{"id":2633436374,"lat":39.41268,"lon":37.19163,"name":"Karasar","type":"station"},{"id":2679016606,"lat":39.28797,"lon":34.8478,"name":"Karasenir","type":"station"},{"id":1804254612,"lat":39.93257,"lon":40.35013,"name":"Karasu","type":"station"},{"id":2785730097,"lat":40.25092,"lon":42.27835,"name":"Karaurgan","type":"halt"},{"id":280077862,"lat":42.02092,"lon":43.90349,"name":"Kareli","nameLocal":"ქარელი","type":"station"},{"id":1028217031,"lat":36.83083,"lon":37.99979,"name":"Karkamış","type":"station"},{"id":2005962642,"lat":40.60494,"lon":43.10685,"name":"Kars","type":"station"},{"id":8428053114,"lat":38.4579,"lon":27.11513,"name":"Karşıyaka","type":"station"},{"id":1000822648,"lat":40.88869,"lon":29.19108,"name":"Kartal","type":"station"},{"id":13249471534,"lat":41.21653,"lon":43.3078,"name":"Kartsakhi","nameLocal":"კარწახი","type":"yard"},{"id":2643812281,"lat":37.7032,"lon":32.56846,"name":"Kaşınhan","type":"station"},{"id":11148782100,"lat":41.92046,"lon":44.41817,"name":"Kaspi","nameLocal":"კასპი","type":"station"},{"id":9727761364,"lat":41.64738,"lon":26.48654,"name":"Kastanee","nameLocal":"Καστανέαι","type":"halt"},{"id":1807556051,"lat":41.06854,"lon":36.02688,"name":"Kavak","type":"station"},{"id":12347968178,"lat":38.42865,"lon":28.35889,"name":"Kavaklıdere","type":"station"},{"id":3073615344,"lat":41.90169,"lon":44.47796,"name":"Kavtiskhevi","nameLocal":"კავთისხევი","type":"station"},{"id":9727761358,"lat":41.55721,"lon":26.53456,"name":"Kavyli","nameLocal":"Καβύλη","type":"halt"},{"id":2700434686,"lat":40.57244,"lon":35.7563,"name":"Kayabaşı","type":"station"},{"id":1039318740,"lat":41.23524,"lon":32.20345,"name":"Kayadibi","type":"station"},{"id":2626019497,"lat":39.91351,"lon":32.96568,"name":"Kayaş","type":"station"},{"id":2627437696,"lat":41.37968,"lon":32.094,"name":"Kayıkçılar","type":"halt"},{"id":2631289661,"lat":38.85103,"lon":27.70286,"name":"Kayışlar","type":"halt"},{"id":2360893097,"lat":40.87137,"lon":29.25596,"name":"Kaynarca","type":"station"},{"id":11309230921,"lat":38.73068,"lon":35.47772,"name":"Kayseri","type":"station"},{"id":10715896199,"lat":38.78096,"lon":35.42934,"name":"Kayseri YHT","type":"station"},{"id":2627358258,"lat":41.51745,"lon":31.91198,"name":"Kazköy","type":"halt"},{"id":3305442183,"lat":40.99267,"lon":28.91689,"name":"Kazlıçeşme","type":"station"},{"id":2654287366,"lat":37.94773,"lon":30.30704,"name":"Keçiborlu","type":"station"},{"id":3050719115,"lat":37.15445,"lon":34.97615,"name":"Kelebek","type":"station"},{"id":1030362885,"lat":39.60363,"lon":39.03369,"name":"Kemah","type":"station"},{"id":2686656046,"lat":39.36788,"lon":38.34705,"name":"Kemaliyeçaltı","type":"station"},{"id":11632512029,"lat":38.46946,"lon":27.40021,"name":"Kemalpaşa","type":"station"},{"id":8071796885,"lat":38.4218,"lon":27.15627,"name":"Kemer","type":"station"},{"id":6992407049,"lat":41.15916,"lon":28.91024,"name":"Kemerburgaz","type":"station"},{"id":2639601783,"lat":37.82646,"lon":40.40377,"name":"Kervanpınar","type":"halt"},{"id":2784882168,"lat":38.7116,"lon":38.01115,"name":"Kesikköprü","type":"station"},{"id":13371950404,"lat":38.75491,"lon":35.39574,"name":"Keykubat","type":"station"},{"id":2473272094,"lat":42.01088,"lon":43.20997,"name":"Kharagouli","nameLocal":"ხარაგაული","type":"station"},{"id":10776367478,"lat":41.9994,"lon":43.60114,"name":"Khashuri","nameLocal":"ხაშური","type":"station"},{"id":2488247388,"lat":35.96314,"lon":43.24837,"name":"Kibrit al Mishraq Railway Station","nameLocal":"محطة قطار كبريت المشراق","type":"station"},{"id":2627314656,"lat":41.48942,"lon":31.84037,"name":"Kilimli","type":"halt"},{"id":2627435430,"lat":41.48163,"lon":32.0909,"name":"Kiremithane","type":"halt"},{"id":2291096476,"lat":40.97562,"lon":25.79784,"name":"Kirki","nameLocal":"Κίρκη","type":"station"},{"id":2626037720,"lat":39.89922,"lon":33.32162,"name":"Kılıçlar","type":"station"},{"id":12228171643,"lat":41.42116,"lon":26.8144,"name":"Kırcasalih","type":"station"},{"id":11309220599,"lat":39.83715,"lon":33.50328,"name":"Kırıkkale","type":"station"},{"id":10856605757,"lat":39.86763,"lon":33.53591,"name":"Kırıkkale YHT","type":"station"},{"id":2631291504,"lat":39.1155,"lon":27.68598,"name":"Kırkağaç","type":"station"},{"id":1807927361,"lat":40.51612,"lon":35.76043,"name":"Kızılca","type":"station"},{"id":1841303619,"lat":38.84849,"lon":30.04503,"name":"Kızılca İstayonu","type":"station"},{"id":2707110470,"lat":39.70411,"lon":30.41688,"name":"Kızılinler","type":"station"},{"id":1807927452,"lat":40.49296,"lon":35.88314,"name":"Kızoğlu","type":"station"},{"id":13347970342,"lat":38.29359,"lon":35.03984,"name":"Km 110+920","type":"station"},{"id":10781720179,"lat":41.00936,"lon":44.63638,"name":"Kobayr","nameLocal":"Քոբայր","type":"station"},{"id":10056291747,"lat":41.81027,"lon":41.78096,"name":"Kobuleti","nameLocal":"ქობულეთი","type":"station"},{"id":1030924769,"lat":37.80372,"lon":29.32774,"name":"Kocabaş Istasyon","type":"station"},{"id":12660716198,"lat":40.99993,"lon":28.93318,"name":"Kocamustafapaşa","type":"station"},{"id":1807218433,"lat":38.67215,"lon":30.32344,"name":"Kocatepe Istasyon","type":"station"},{"id":12999694104,"lat":38.67232,"lon":30.32327,"name":"Kocatepe Istasyon","type":"station"},{"id":13180360334,"lat":38.6012,"lon":39.48426,"name":"Koçkale","type":"station"},{"id":9125877667,"lat":38.63427,"lon":39.56648,"name":"Konak","type":"station"},{"id":13362326355,"lat":38.3571,"lon":28.71107,"name":"Konaklar","type":"station"},{"id":9665946450,"lat":41.03461,"lon":28.76335,"name":"Konut Birlik","type":"station"},{"id":5014804022,"lat":37.86534,"lon":32.4759,"name":"Konya","type":"station"},{"id":13150129314,"lat":37.36137,"lon":37.00033,"name":"Köprüağzı","type":"station"},{"id":2691629710,"lat":39.96847,"lon":41.86819,"name":"Köprüköy","type":"station"},{"id":1868728280,"lat":39.49191,"lon":29.75651,"name":"Köprüören","type":"station"},{"id":9727693123,"lat":41.15659,"lon":26.3017,"name":"Kornofolia","nameLocal":"Κορνοφωλιά","type":"halt"},{"id":2692357799,"lat":40.7489,"lon":30.00621,"name":"Köseköy","type":"station"},{"id":1033065520,"lat":37.85155,"lon":28.05148,"name":"Köşk","type":"station"},{"id":6942688155,"lat":39.91685,"lon":32.95006,"name":"Köstence","type":"station"},{"id":8016975985,"lat":38.38335,"lon":27.14743,"name":"Koşu","type":"station"},{"id":1741166643,"lat":41.86393,"lon":44.57564,"name":"Ksani","nameLocal":"ქსანი","type":"station"},{"id":6328169451,"lat":40.98852,"lon":28.77296,"name":"Küçükçekmece","type":"station"},{"id":282903538,"lat":40.94626,"lon":29.10717,"name":"Küçükyalı","type":"station"},{"id":12660718808,"lat":41.00337,"lon":28.9629,"name":"Kumkapı","type":"station"},{"id":1806877056,"lat":37.86426,"lon":37.69298,"name":"Kumlu","type":"station"},{"id":2700448886,"lat":40.04141,"lon":36.29426,"name":"Kunduz","type":"halt"},{"id":13371861687,"lat":39.94191,"lon":33.29522,"name":"Kurbağalı","type":"station"},{"id":2705954244,"lat":38.461,"lon":39.27428,"name":"Kürk","type":"station"},{"id":13397730241,"lat":40.846,"lon":33.25011,"name":"Kurşunlu","type":"station"},{"id":2635328399,"lat":38.83471,"lon":41.2704,"name":"Kurt","type":"station"},{"id":12285428116,"lat":37.92842,"lon":41.69736,"name":"Kurtalan","type":"station"},{"id":13092695117,"lat":37.93918,"lon":41.70266,"name":"Kurtalan","type":"proposed"},{"id":1810970676,"lat":40.84104,"lon":32.75948,"name":"Kurtçimeni","type":"station"},{"id":6942688138,"lat":39.92882,"lon":32.86789,"name":"Kurtuluş","type":"station"},{"id":1033939388,"lat":40.33636,"lon":27.98019,"name":"Kuşcenneti","type":"station"},{"id":8425813600,"lat":38.20914,"lon":27.30934,"name":"Kuşçuburun","type":"station"},{"id":1433310152,"lat":38.45284,"lon":38.68107,"name":"Kuşsarayı","type":"station"},{"id":1035063304,"lat":39.42056,"lon":30.00101,"name":"Kütahya","type":"station"},{"id":2407825483,"lat":37.90969,"lon":28.45948,"name":"Kuyucak","type":"station"},{"id":1460955447,"lat":40.00881,"lon":32.8905,"name":"Kuzey Ankara","type":"station"},{"id":11241361331,"lat":41.97229,"lon":43.53354,"name":"Kvishkheti","nameLocal":"ქვიშხეთი","type":"station"},{"id":2632430068,"lat":41.01927,"lon":35.87199,"name":"Ladik","type":"station"},{"id":9727693125,"lat":41.08639,"lon":26.30133,"name":"Lagyna","nameLocal":"Λαγυνά","type":"station"},{"id":12012657166,"lat":39.95794,"lon":33.18742,"name":"Lalabel","type":"station"},{"id":2626026172,"lat":39.97063,"lon":33.11713,"name":"Lalahan","type":"station"},{"id":8004018093,"lat":39.96146,"lon":32.5987,"name":"Lale","type":"station"},{"id":8193374056,"lat":42.09235,"lon":42.04296,"name":"Lanchkhuti","nameLocal":"ლანჩხუთი","type":"station"},{"id":9727692315,"lat":41.26808,"lon":26.39306,"name":"Lavara","nameLocal":"Λάβαρα","type":"station"},{"id":2784067271,"lat":38.0219,"lon":40.0829,"name":"Leylek","type":"station"},{"id":2502544119,"lat":41.35541,"lon":27.33185,"name":"Lüleburgaz","type":"station"},{"id":12112984240,"lat":41.36634,"lon":27.34752,"name":"Lüleburgaz YHT Garı","type":"construction"},{"id":1806453441,"lat":38.4013,"lon":39.66905,"name":"Maden","type":"station"},{"id":567215085,"lat":36.8868,"lon":41.83555,"name":"Mahattat Bab al Hadid","nameLocal":"محطة باب الحديد","type":"station"},{"id":567215225,"lat":36.90766,"lon":41.78084,"name":"Mahattat Damir Qabu","nameLocal":"محطة دمير قابو","type":"station"},{"id":567215559,"lat":36.99312,"lon":41.54135,"name":"Mahattat Qubur al Bid","nameLocal":"محطة قبور البيض","type":"station"},{"id":572538309,"lat":35.83347,"lon":37.03397,"name":"Mahattat Tallajin","nameLocal":"محطة تلاجين","type":"station"},{"id":4951152421,"lat":35.83348,"lon":37.03374,"name":"Mahattat Tallajin","nameLocal":"محطة تلاجين","type":"station"},{"id":1038519200,"lat":39.85922,"lon":33.60697,"name":"Mahmutlar","type":"station"},{"id":900946776,"lat":41.67736,"lon":41.69642,"name":"Makhinjauri","nameLocal":"მახინჯაური","type":"station"},{"id":11309220632,"lat":38.35252,"lon":38.28325,"name":"Malatya","type":"station"},{"id":2627512379,"lat":39.78432,"lon":32.38666,"name":"Malıköy","type":"station"},{"id":617374899,"lat":40.92081,"lon":29.1333,"name":"Maltepe","type":"station"},{"id":6942688152,"lat":39.9314,"lon":32.91161,"name":"Mamak","type":"station"},{"id":13381634256,"lat":37.13681,"lon":36.3183,"name":"Mamure","type":"station"},{"id":13376850652,"lat":41.35848,"lon":27.07977,"name":"Mandıra","type":"station"},{"id":168129480,"lat":38.62136,"lon":27.43521,"name":"Manisa Garı","type":"station"},{"id":10781805793,"lat":41.5464,"lon":44.80319,"name":"Marabda","nameLocal":"მარაბდა","type":"station"},{"id":3895120717,"lat":40.57932,"lon":43.87655,"name":"Maralik","nameLocal":"Մարալիկ","type":"station"},{"id":9727761366,"lat":41.66899,"lon":26.46984,"name":"Marasia","nameLocal":"Μαράσια","type":"halt"},{"id":1831989082,"lat":37.28467,"lon":40.70845,"name":"Mardin İstasyonu","type":"station"},{"id":3065960984,"lat":41.97563,"lon":43.2971,"name":"Marelisi","nameLocal":"მარელისი","type":"station"},{"id":9570630662,"lat":40.06217,"lon":44.41064,"name":"Masis","nameLocal":"Մասիս","type":"station"},{"id":663657266,"lat":38.48222,"lon":27.08298,"name":"Mavişehir","type":"station"},{"id":12163032631,"lat":37.50512,"lon":40.36582,"name":"Mazıdağı Çöp","type":"station"},{"id":3522384531,"lat":40.67072,"lon":43.94715,"name":"Meghrashen Railway Station","nameLocal":"Մեղրաշեն կայարան","type":"station"},{"id":4935284080,"lat":40.45069,"lon":30.05195,"name":"Mekece","type":"station"},{"id":12344626530,"lat":38.60317,"lon":27.07672,"name":"Menemen","type":"station"},{"id":1805749145,"lat":39.78962,"lon":36.72449,"name":"Menteşe","type":"station"},{"id":1804303985,"lat":39.74895,"lon":40.25769,"name":"Mercan","type":"station"},{"id":3065968071,"lat":41.94106,"lon":41.89425,"name":"Meria","nameLocal":"მერია","type":"station"},{"id":2596542075,"lat":36.80316,"lon":34.63384,"name":"Mersin Garı","type":"station"},{"id":2632443677,"lat":41.19338,"lon":36.21158,"name":"Meşelidüz","type":"station"},{"id":1866950347,"lat":38.19944,"lon":32.54662,"name":"Meydan","type":"station"},{"id":4394456238,"lat":39.54931,"lon":28.30847,"name":"Mezitler","type":"station"},{"id":2691661812,"lat":40.67763,"lon":43.23362,"name":"Mezra","type":"station"},{"id":8413058813,"lat":38.45084,"lon":44.69916,"name":"Miladi","nameLocal":"میلادی","type":"station"},{"id":457712768,"lat":36.47332,"lon":37.08905,"name":"Mirey Berkpinar - Station","type":"station"},{"id":13526005984,"lat":40.7589,"lon":30.38008,"name":"Mithatpaşa","type":"station"},{"id":11368513438,"lat":40.01938,"lon":44.47779,"name":"Mkhchyan","nameLocal":"Մխչյան","type":"station"},{"id":11098865913,"lat":41.9816,"lon":43.36909,"name":"Moliti","nameLocal":"მოლითი","type":"station"},{"id":2009271325,"lat":37.83446,"lon":27.53201,"name":"Moralı","type":"halt"},{"id":12552442102,"lat":36.29461,"lon":43.14411,"name":"Mosul Airport Railway Station","type":"station"},{"id":13446460514,"lat":36.33101,"lon":43.1215,"name":"Mosul Railway Station","nameLocal":"محطة سكة حديد الموصل","type":"station"},{"id":6981627650,"lat":39.93421,"lon":32.77847,"name":"Motor","type":"station"},{"id":11368513442,"lat":40.1319,"lon":44.0827,"name":"Mrgashat","nameLocal":"Մրգաշատ","type":"station"},{"id":2813131204,"lat":41.6949,"lon":44.78665,"name":"Mtatsminda Park","nameLocal":"მთაწმინდის პარკი","type":"station"},{"id":8182444124,"lat":41.83823,"lon":44.70062,"name":"Mtskheta","nameLocal":"მცხეთა","type":"station"},{"id":10160022342,"lat":37.07441,"lon":37.3707,"name":"Mücahitler","type":"station"},{"id":2629175958,"lat":38.65117,"lon":27.32843,"name":"Muradiye","type":"station"},{"id":1849701875,"lat":38.65313,"lon":39.7789,"name":"Muratbağı","type":"station"},{"id":2255041702,"lat":41.16993,"lon":27.50025,"name":"Muratlı","type":"station"},{"id":13383141520,"lat":36.90047,"lon":38.35091,"name":"Mürşitpınar","type":"station"},{"id":1550726413,"lat":38.76164,"lon":41.51105,"name":"Muş","nameLocal":"Muş Garı","type":"station"},{"id":13236388203,"lat":41.72252,"lon":44.7871,"name":"Mushtaidi","nameLocal":"მუშტაიდი","type":"station"},{"id":2627375884,"lat":41.51957,"lon":31.92443,"name":"Muslu","type":"halt"},{"id":6328169450,"lat":41.00618,"lon":28.77389,"name":"Mustafa Kemal","type":"station"},{"id":10160022355,"lat":37.07094,"lon":37.4308,"name":"Mustafa Yavuz","type":"station"},{"id":10780687810,"lat":40.8515,"lon":44.16215,"name":"Nalband","nameLocal":"Նալբանդ","type":"station"},{"id":1976917817,"lat":38.46456,"lon":27.12845,"name":"Naldöken","type":"station"},{"id":2785467907,"lat":37.39584,"lon":37.13955,"name":"Narlı","type":"station"},{"id":1081901889,"lat":41.93256,"lon":41.80227,"name":"Natanebi","nameLocal":"ნატანები","type":"station"},{"id":1033065838,"lat":37.91406,"lon":28.32709,"name":"Nazilli","type":"station"},{"id":9727761363,"lat":41.57876,"lon":26.53468,"name":"Nea Vyssa","nameLocal":"Νέα Βύσσα","type":"station"},{"id":13371825857,"lat":39.94243,"lon":33.0305,"name":"Nenek","type":"station"},{"id":4556769263,"lat":38.45959,"lon":27.10467,"name":"Nergiz","type":"station"},{"id":12576453391,"lat":37.96541,"lon":34.685,"name":"Niğde","type":"station"},{"id":2250203955,"lat":42.08902,"lon":42.12225,"name":"Nigoiti","nameLocal":"ნიგოითი","type":"station"},{"id":2732614877,"lat":37.00125,"lon":37.78895,"name":"Nizip","type":"station"},{"id":175659751,"lat":36.58408,"lon":36.97572,"name":"Noah Brandt - Station","type":"station"},{"id":11368513449,"lat":40.28343,"lon":44.57246,"name":"Nor Hachn","nameLocal":"Նոր Հաճն","type":"station"},{"id":10782858977,"lat":40.11314,"lon":44.46408,"name":"Noragavit","nameLocal":"Նորագավիթ","type":"station"},{"id":13381689125,"lat":37.1756,"lon":36.74983,"name":"Nurdağ","type":"station"},{"id":10781636947,"lat":40.34294,"lon":44.60622,"name":"Nurnus","nameLocal":"Նուռնուս","type":"station"},{"id":1101841150,"lat":37.07581,"lon":41.22814,"name":"Nusaybin","type":"station"},{"id":4394457197,"lat":39.61582,"lon":28.1626,"name":"Nusrat","type":"station"},{"id":900946839,"lat":41.85712,"lon":41.82957,"name":"Ochkhamuri","nameLocal":"ოჩხამური","type":"station"},{"id":12887415753,"lat":38.22205,"lon":27.96557,"name":"Ödemiş","type":"station"},{"id":12887415754,"lat":38.22721,"lon":27.97715,"name":"Ödemiş Şehir","type":"station"},{"id":11553493315,"lat":40.06248,"lon":28.16149,"name":"Okçugöl","type":"station"},{"id":13372393312,"lat":39.84184,"lon":28.07496,"name":"Ömerköy","type":"station"},{"id":13140866846,"lat":41.11729,"lon":28.64142,"name":"Ömerli","type":"station"},{"id":13270950264,"lat":38.69612,"lon":35.24866,"name":"Örenşehir","type":"station"},{"id":9727761356,"lat":41.50298,"lon":26.53717,"name":"Orestiada","nameLocal":"Ορεστιάδα","type":"station"},{"id":9727715558,"lat":41.72821,"lon":26.21259,"name":"Ormenio","nameLocal":"Ορμένιο","type":"station"},{"id":1032704953,"lat":37.88636,"lon":27.50248,"name":"Ortaklar","type":"station"},{"id":1810292886,"lat":40.93587,"lon":32.56262,"name":"Ortaköy","type":"station"},{"id":10159892612,"lat":37.16406,"lon":37.34186,"name":"OSB-3","type":"station"},{"id":10159892615,"lat":37.16381,"lon":37.35224,"name":"OSB-4","type":"station"},{"id":116709425,"lat":37.60693,"lon":34.36622,"name":"Osmancik","type":"halt"},{"id":1918589900,"lat":40.36431,"lon":30.02744,"name":"Osmaneli","type":"station"},{"id":11953552080,"lat":40.37273,"lon":29.95941,"name":"Osmaneli Hızlı Tren İstasyonu","type":"station"},{"id":5085891619,"lat":40.79924,"lon":29.38012,"name":"Osmangazi","type":"station"},{"id":125326513,"lat":37.0794,"lon":36.23703,"name":"Osmaniye","type":"station"},{"id":2201574186,"lat":38.83987,"lon":29.90262,"name":"Oturak İstasyonu","type":"station"},{"id":2700436659,"lat":40.53618,"lon":35.74292,"name":"Ovasaray","type":"halt"},{"id":9144161088,"lat":38.86347,"lon":40.9672,"name":"Oymapınar","type":"station"},{"id":13185553849,"lat":38.65335,"lon":43.98973,"name":"Özalp","type":"station"},{"id":13183502188,"lat":38.70837,"lon":41.80566,"name":"Özden","type":"station"},{"id":1807928392,"lat":40.66517,"lon":35.83275,"name":"Özel İdare","type":"halt"},{"id":1339958347,"lat":39.95175,"lon":32.64927,"name":"Özgüneş","type":"station"},{"id":8201590915,"lat":41.92803,"lon":42.00527,"name":"Ozurgeti","nameLocal":"ოზურგეთი","type":"station"},{"id":2784870836,"lat":39.93189,"lon":41.17148,"name":"Palandöken","type":"station"},{"id":1017553575,"lat":38.69084,"lon":39.92701,"name":"Palu","type":"station"},{"id":10780687806,"lat":40.82932,"lon":44.55871,"name":"Pambak","nameLocal":"Փամբակ","type":"station"},{"id":1392072230,"lat":40.50258,"lon":30.17221,"name":"Pamukova","type":"station"},{"id":12736098197,"lat":40.49819,"lon":30.18689,"name":"Pamukova YHT","type":"station"},{"id":11675949249,"lat":38.1975,"lon":27.23957,"name":"Pancar","type":"station"},{"id":2460341551,"lat":40.66282,"lon":43.95571,"name":"Panik Railway Station","nameLocal":"Փանիկ կայարան","type":"station"},{"id":1839640778,"lat":41.69511,"lon":44.78922,"name":"Pantheon","nameLocal":"პანთეონი","type":"station"},{"id":13353304195,"lat":39.06199,"lon":35.03662,"name":"Paşalı","type":"station"},{"id":13147533958,"lat":36.76693,"lon":36.20935,"name":"Payas","type":"station"},{"id":12692905025,"lat":37.49085,"lon":37.28997,"name":"Pazarcık","type":"station"},{"id":5874170070,"lat":41.34602,"lon":26.91816,"name":"Pehlivanköy","type":"station"},{"id":13528589871,"lat":41.34603,"lon":26.91834,"name":"Pehlivanköy","type":"station"},{"id":13362534707,"lat":40.19449,"lon":30.01436,"name":"Pelitözü","type":"station"},{"id":617375011,"lat":40.88025,"lon":29.23155,"name":"Pendik","type":"station"},{"id":9727693131,"lat":40.95932,"lon":26.27701,"name":"Peplos","nameLocal":"Πέπλος","type":"station"},{"id":9727692294,"lat":41.339,"lon":26.61094,"name":"Petrades","nameLocal":"Πετράδες","type":"halt"},{"id":842336049,"lat":40.17951,"lon":44.49868,"name":"Pionerakan","nameLocal":"Պիոներական","type":"station"},{"id":1626984771,"lat":39.62746,"lon":28.7959,"name":"Piribeyler İstasyonu","type":"station"},{"id":13495967625,"lat":41.15434,"lon":32.54084,"name":"Pirinçlik","type":"station"},{"id":2629885702,"lat":38.40003,"lon":28.43296,"name":"Piyadeler","type":"station"},{"id":13154813552,"lat":38.03723,"lon":32.60492,"name":"Pınarbaşı","type":"station"},{"id":1433310422,"lat":38.47249,"lon":38.77508,"name":"Pınarlı","type":"station"},{"id":11926198844,"lat":38.47254,"lon":38.77505,"name":"Pınarlı","type":"station"},{"id":1037720654,"lat":39.58567,"lon":32.14173,"name":"Polatlı","type":"station"},{"id":10134127154,"lat":39.58018,"lon":32.18146,"name":"Polatlı YHT Garı","type":"station"},{"id":2711412140,"lat":39.59867,"lon":30.27675,"name":"Porsuk","type":"station"},{"id":5201470368,"lat":40.7786,"lon":43.19824,"name":"Porsuklu","type":"halt"},{"id":2627514165,"lat":39.71286,"lon":32.2908,"name":"Poyraz","type":"halt"},{"id":2719965350,"lat":37.42291,"lon":34.87317,"name":"Pozantı","type":"station"},{"id":9727692295,"lat":41.343,"lon":26.57598,"name":"Praggi","nameLocal":"Πραγγί","type":"halt"},{"id":13001225115,"lat":41.28014,"lon":27.9741,"name":"Profilo","type":"station"},{"id":11368513447,"lat":40.26037,"lon":44.42283,"name":"Proshyan","nameLocal":"Պռոշյան","type":"station"},{"id":9727692299,"lat":41.32386,"lon":26.48991,"name":"Psathades","nameLocal":"Ψαθάδες","type":"halt"},{"id":9727761371,"lat":41.71769,"lon":26.25324,"name":"Ptelea","nameLocal":"Πτελέα","type":"halt"},{"id":9727692293,"lat":41.3697,"lon":26.6216,"name":"Pythio","nameLocal":"Πύθιο","type":"station"},{"id":9727692287,"lat":41.38275,"lon":26.61275,"name":"Pythio Halt","nameLocal":"Πύθιο Στάση","type":"halt"},{"id":187317212,"lat":37.05387,"lon":41.25463,"name":"Qamishli","nameLocal":"قامشلۆ","type":"station"},{"id":2064789384,"lat":38.50481,"lon":42.20877,"name":"Rahova","type":"station"},{"id":8413080917,"lat":38.49302,"lon":44.34416,"name":"Razi","nameLocal":"رازی","type":"station"},{"id":12165174338,"lat":40.13593,"lon":44.46379,"name":"Red Hill","nameLocal":"Կարմիր բլուր","type":"station"},{"id":9727692286,"lat":41.39806,"lon":26.59153,"name":"Rigio","nameLocal":"Ρήγιο","type":"halt"},{"id":12478211866,"lat":36.79901,"lon":42.09044,"name":"Rubaiye","nameLocal":"ربيعة","type":"station"},{"id":2712964634,"lat":39.56312,"lon":30.19087,"name":"Sabuncupınar","type":"station"},{"id":4862254515,"lat":36.40739,"lon":42.8926,"name":"Sabuniya Railway Station","nameLocal":"محطة قطار الصابونية","type":"station"},{"id":618739254,"lat":41.24529,"lon":44.80777,"name":"Sadakhlo","nameLocal":"სადახლო","type":"station"},{"id":2733584895,"lat":38.08509,"lon":27.40049,"name":"Sağlık","type":"station"},{"id":13031810391,"lat":40.74897,"lon":43.55109,"name":"Şahnalar","type":"halt"},{"id":6942688151,"lat":39.93756,"lon":32.89479,"name":"Saimekadın","type":"station"},{"id":902313860,"lat":42.10393,"lon":42.29188,"name":"Sajavakho","nameLocal":"საჯავახო","type":"station"},{"id":2639617804,"lat":36.99615,"lon":35.289,"name":"Şakirpaşa","type":"halt"},{"id":9727761357,"lat":41.53986,"lon":26.53172,"name":"Sakkos","nameLocal":"Σάκκος","type":"halt"},{"id":1018997109,"lat":37.84635,"lon":40.88994,"name":"Salat","type":"halt"},{"id":1967436211,"lat":38.45069,"lon":27.17221,"name":"Salhane","type":"station"},{"id":2629880622,"lat":38.48301,"lon":28.1309,"name":"Salihli","type":"station"},{"id":1829841726,"lat":38.27548,"lon":39.67835,"name":"Sallar","type":"station"},{"id":2627429880,"lat":41.51903,"lon":32.09312,"name":"Saltukova","type":"station"},{"id":1023854236,"lat":41.28609,"lon":36.34326,"name":"Samsun","type":"station"},{"id":2700438701,"lat":40.46367,"lon":36.02237,"name":"Samurçay","type":"station"},{"id":618738557,"lat":41.07729,"lon":44.61852,"name":"Sanahin","nameLocal":"Սանահին","type":"station"},{"id":2700453612,"lat":39.86715,"lon":36.431,"name":"Sandal","type":"halt"},{"id":170748789,"lat":38.45847,"lon":30.2608,"name":"Sandıklı Istasyon","type":"station"},{"id":2694271807,"lat":40.69306,"lon":30.27342,"name":"Sapanca","type":"station"},{"id":13236383449,"lat":39.95227,"lon":40.53341,"name":"Saptıran","type":"halt"},{"id":13270950263,"lat":38.736,"lon":35.29055,"name":"Saraycık","type":"station"},{"id":1032704993,"lat":37.91396,"lon":28.92597,"name":"Sarayköy Istasyonu","type":"station"},{"id":2396457923,"lat":38.25588,"lon":32.40401,"name":"Sarayönü","type":"station"},{"id":1544857237,"lat":39.53064,"lon":36.82867,"name":"Sarıdemir","type":"station"},{"id":13125673028,"lat":39.53064,"lon":36.82858,"name":"Sarıdemir","type":"station"},{"id":1030362574,"lat":40.33589,"lon":42.57694,"name":"Sarıkamış","type":"station"},{"id":2320732874,"lat":39.37772,"lon":34.77933,"name":"Sarıkent","type":"station"},{"id":2679028128,"lat":38.89436,"lon":35.71591,"name":"Sarımsaklı","type":"station"},{"id":1878229658,"lat":39.08064,"lon":35.96423,"name":"Sarıoğlan","type":"station"},{"id":13149530362,"lat":36.66869,"lon":36.21366,"name":"Sarıseki","type":"station"},{"id":11309220631,"lat":39.36409,"lon":36.40316,"name":"Şarkışla","type":"station"},{"id":13378256121,"lat":40.3084,"lon":30.07905,"name":"Sarmaşık","type":"station"},{"id":8050994350,"lat":38.31207,"lon":27.14462,"name":"Sarnıç","type":"station"},{"id":3063493588,"lat":38.66829,"lon":38.13481,"name":"Sarsap","type":"station"},{"id":2631286464,"lat":38.73274,"lon":27.57739,"name":"Saruhanlı","type":"station"},{"id":1036369880,"lat":39.3827,"lon":27.65019,"name":"Savaştepe","type":"station"},{"id":130194636,"lat":36.72427,"lon":39.62513,"name":"Sayarlı","type":"station"},{"id":2679002922,"lat":39.74901,"lon":31.5893,"name":"Sazak","type":"station"},{"id":13371788246,"lat":39.66594,"lon":31.88828,"name":"Sazılar","type":"station"},{"id":1833225767,"lat":37.8296,"lon":40.98699,"name":"Sazlık","type":"halt"},{"id":1032781989,"lat":37.78307,"lon":27.46336,"name":"Sazlıköy","type":"halt"},{"id":12228171645,"lat":41.35938,"lon":26.88031,"name":"Sazlımalkoç","type":"station"},{"id":2319789289,"lat":39.49854,"lon":34.74969,"name":"Şefaatli","type":"station"},{"id":370992697,"lat":38.57352,"lon":38.89946,"name":"Şefkat","type":"station"},{"id":2639617180,"lat":36.99794,"lon":35.24404,"name":"Şehitlik","type":"station"},{"id":2785542663,"lat":37.2124,"lon":37.2614,"name":"Şehitrarif","type":"station"},{"id":13544932208,"lat":37.17655,"lon":40.67861,"name":"Sekidüzü","type":"station"},{"id":1038144898,"lat":39.7362,"lon":34.25464,"name":"Sekili","type":"station"},{"id":212886999,"lat":37.95094,"lon":27.37294,"name":"Selçuk","type":"station"},{"id":11034131794,"lat":37.89824,"lon":32.49815,"name":"Selçuklu YHT","type":"station"},{"id":2784864445,"lat":40.43357,"lon":42.80411,"name":"Selim","type":"station"},{"id":10160022330,"lat":37.09931,"lon":37.37246,"name":"Selimiye","type":"station"},{"id":268753721,"lat":38.47489,"lon":27.08994,"name":"Şemikler","type":"station"},{"id":8078673975,"lat":38.357,"lon":27.13663,"name":"Semt Garajı","type":"station"},{"id":130194329,"lat":37.07838,"lon":40.64538,"name":"Şenyurt","type":"station"},{"id":12228171642,"lat":41.47141,"lon":26.76284,"name":"Şerbettar","type":"station"},{"id":130194173,"lat":37.10488,"lon":41.07108,"name":"Serçehan Istasyon","type":"station"},{"id":2852454546,"lat":37.86872,"lon":40.58801,"name":"Seyithasan","type":"halt"},{"id":2560639600,"lat":41.27158,"lon":27.45166,"name":"Seyitler","type":"station"},{"id":13391047355,"lat":39.57845,"lon":29.87309,"name":"Seyitömer","type":"station"},{"id":10160022352,"lat":37.0762,"lon":37.42482,"name":"Seyrantepe","type":"station"},{"id":10780687805,"lat":40.8861,"lon":44.59393,"name":"Shahali","nameLocal":"Շահալի","type":"station"},{"id":2488246712,"lat":35.935,"lon":43.26667,"name":"Shuwayrat Railway Station","nameLocal":"محطة قطار الشويرات","type":"station"},{"id":12621079984,"lat":37.91412,"lon":41.89648,"name":"Siirt","type":"proposed"},{"id":9954458920,"lat":42.02486,"lon":25.84566,"name":"Simeonovgrad","nameLocal":"Симеоновград","type":"station"},{"id":2639597696,"lat":37.82918,"lon":40.97615,"name":"Sinan","type":"station"},{"id":8004018090,"lat":39.96454,"lon":32.58399,"name":"Sincan","type":"station"},{"id":4394454078,"lat":39.61119,"lon":28.74745,"name":"Sindirler","type":"station"},{"id":287816799,"lat":41.23104,"lon":28.19231,"name":"Sinekli","type":"station"},{"id":8050924818,"lat":38.39195,"lon":27.14725,"name":"Şirinyer","type":"station"},{"id":12660718814,"lat":41.01502,"lon":28.97796,"name":"Sirkeci","type":"station"},{"id":6395978813,"lat":41.01361,"lon":28.97714,"name":"Sirkeci Marmaray Underground Station","nameLocal":"Sirkeci","type":"station"},{"id":13378050813,"lat":37.00165,"lon":35.74299,"name":"Sirkeli","type":"station"},{"id":11368513439,"lat":40.06332,"lon":44.38887,"name":"Sis","nameLocal":"Սիս","type":"station"},{"id":10820137957,"lat":39.73921,"lon":37.007,"name":"Sivas","type":"station"},{"id":1018798452,"lat":38.44869,"lon":39.30686,"name":"Sivrice","type":"halt"},{"id":1832450993,"lat":38.6504,"lon":42.14362,"name":"Sıcaksu","type":"station"},{"id":9196517648,"lat":40.26995,"lon":28.05154,"name":"Sığırcı","type":"station"},{"id":9727692285,"lat":41.4236,"lon":26.56545,"name":"Sofiko","nameLocal":"Σοφικό","type":"halt"},{"id":2090688385,"lat":40.27663,"lon":42.41019,"name":"Soğanlı","type":"station"},{"id":3050696577,"lat":39.51396,"lon":27.67267,"name":"Soğucak","type":"station"},{"id":2639595245,"lat":37.83406,"lon":41.02205,"name":"Soğuksu","type":"halt"},{"id":6321654790,"lat":40.991,"lon":29.03765,"name":"Söğütlüçeşme","type":"station"},{"id":1032782424,"lat":37.75523,"lon":27.40981,"name":"Söke İstasyonu","type":"station"},{"id":10781636954,"lat":40.45211,"lon":44.69358,"name":"Solak","nameLocal":"Սոլակ","type":"station"},{"id":2631293916,"lat":39.19872,"lon":27.62418,"name":"Soma","type":"station"},{"id":10820061374,"lat":39.82669,"lon":35.15859,"name":"Sorgun YHT","type":"station"},{"id":9727693118,"lat":41.18786,"lon":26.30155,"name":"Soufli","nameLocal":"Σουφλί","type":"station"},{"id":10782858978,"lat":40.11547,"lon":44.15273,"name":"Sovetakan","nameLocal":"Սովետական","type":"station"},{"id":3043451473,"lat":38.60511,"lon":43.56801,"name":"Söylemez","type":"station"},{"id":11368513446,"lat":40.21311,"lon":44.42043,"name":"Spandaryan","nameLocal":"Սպանդարյան","type":"station"},{"id":10780687808,"lat":40.83769,"lon":44.27026,"name":"Spitak","nameLocal":"Սպիտակ","type":"yard"},{"id":10167187177,"lat":37.12685,"lon":37.38175,"name":"Stadyum","type":"station"},{"id":5298185983,"lat":40.9605,"lon":29.08446,"name":"Suadiye","type":"station"},{"id":1022220160,"lat":39.89236,"lon":36.42047,"name":"Subaşı","type":"station"},{"id":1029553728,"lat":38.18668,"lon":37.97803,"name":"Suçatı","type":"station"},{"id":2643801218,"lat":37.27165,"lon":33.3751,"name":"Sudurağı","type":"station"},{"id":13372514394,"lat":38.96296,"lon":27.77993,"name":"Süleymanlı","type":"station"},{"id":12347968181,"lat":38.54793,"lon":31.26824,"name":"Sultandağı","type":"station"},{"id":1033065918,"lat":37.88732,"lon":28.15573,"name":"Sultanhisar","type":"station"},{"id":13390705917,"lat":38.71078,"lon":30.62948,"name":"Sülün","type":"station"},{"id":13285269717,"lat":40.815,"lon":35.65851,"name":"Suluova","type":"station"},{"id":963242112,"lat":40.82818,"lon":33.32122,"name":"Sumucak","type":"station"},{"id":12538984421,"lat":40.14535,"lon":34.3529,"name":"Sungurlu","type":"station"},{"id":13011507239,"lat":40.14524,"lon":34.35291,"name":"Sungurlu","type":"station"},{"id":2691635589,"lat":40.21489,"lon":42.25054,"name":"Süngütaşı","type":"station"},{"id":2631290520,"lat":38.97245,"lon":27.75667,"name":"Sünnetçiler","type":"halt"},{"id":288626829,"lat":42.04111,"lon":41.81361,"name":"Supsa","nameLocal":"სუფსა","type":"station"},{"id":617374883,"lat":40.92679,"lon":29.12424,"name":"Süreyya Plajı","type":"station"},{"id":12367201824,"lat":39.92561,"lon":28.15289,"name":"Susurluk train station","nameLocal":"Susurluk İstasyonu","type":"station"},{"id":2191160969,"lat":38.12913,"lon":29.99089,"name":"Sütlaç","type":"station"},{"id":12297016299,"lat":41.7745,"lon":26.14394,"name":"Svilengrad","nameLocal":"Свиленград","type":"station"},{"id":637097449,"lat":41.77457,"lon":26.14427,"name":"Svilengrad","nameLocal":"Свиленград","type":"station"},{"id":1514128635,"lat":40.73494,"lon":43.5433,"name":"Tabur","type":"halt"},{"id":1457024309,"lat":36.83191,"lon":36.67517,"name":"Tahtaköprü","type":"station"},{"id":9164730780,"lat":41.03678,"lon":28.98663,"name":"Taksim","type":"station"},{"id":1019524713,"lat":39.60982,"lon":39.82816,"name":"Tanyeri","type":"station"},{"id":2639614349,"lat":36.92071,"lon":34.88564,"name":"Tarsus","type":"station"},{"id":2639613936,"lat":36.86487,"lon":34.77458,"name":"Taşkent","type":"station"},{"id":10160022362,"lat":37.05835,"lon":37.44901,"name":"Taşlıca","type":"station"},{"id":2633458528,"lat":39.63121,"lon":37.01313,"name":"Taşlıdere","type":"station"},{"id":13370346104,"lat":39.68606,"lon":34.40224,"name":"Tatbekirli","type":"station"},{"id":1413662974,"lat":38.50874,"lon":42.27585,"name":"Tatvan","type":"station"},{"id":13386119588,"lat":38.51438,"lon":42.29704,"name":"Tatvan Pier","nameLocal":"Tatvan Iskele","type":"station"},{"id":13569965680,"lat":40.76803,"lon":29.56995,"name":"Tavşancıl","type":"halt"},{"id":1628535479,"lat":39.54022,"lon":29.48634,"name":"Tavşanlı","type":"station"},{"id":13206521717,"lat":41.59682,"lon":26.65334,"name":"Tayyakadın","type":"station"},{"id":3072368499,"lat":41.73851,"lon":44.78575,"name":"Tbilisi-Cargo","nameLocal":"თბილისი სატვირთო","type":"station"},{"id":1818639872,"lat":39.40673,"lon":37.09239,"name":"Tecer","type":"station"},{"id":8087609727,"lat":38.18102,"lon":27.18567,"name":"Tekeli","type":"station"},{"id":13528524996,"lat":40.95842,"lon":27.48463,"name":"Tekirdağ","type":"station"},{"id":2829169583,"lat":40.96178,"lon":27.50408,"name":"Tekirdağ İskele","type":"station"},{"id":12478211861,"lat":36.69094,"lon":42.38141,"name":"Tel Owainat","type":"station"},{"id":2627513597,"lat":39.73204,"lon":32.35255,"name":"Temelli","type":"halt"},{"id":2790047428,"lat":39.27116,"lon":37.52559,"name":"Temürün","type":"halt"},{"id":1678629843,"lat":38.14704,"lon":27.36153,"name":"Tepeköy","type":"station"},{"id":13270950267,"lat":38.751,"lon":35.40467,"name":"Terminal","type":"station"},{"id":13528379827,"lat":40.72966,"lon":30.37624,"name":"Terminal","type":"halt"},{"id":5084106192,"lat":40.86116,"lon":29.27329,"name":"Tersane","type":"station"},{"id":7996564301,"lat":41.53181,"lon":44.49528,"name":"Tetritskaro","nameLocal":"თეთრიწყარო","type":"yard"},{"id":9727692284,"lat":41.43449,"lon":26.56134,"name":"Thourio","nameLocal":"Θούριο","type":"halt"},{"id":1841395601,"lat":38.74523,"lon":30.38493,"name":"Tinaztepe","type":"station"},{"id":12887415751,"lat":38.09249,"lon":27.7278,"name":"Tire İstasyonu","type":"station"},{"id":2639608173,"lat":36.83775,"lon":34.68838,"name":"Tırmıl","type":"station"},{"id":1056006985,"lat":39.3582,"lon":36.30706,"name":"Topac","type":"station"},{"id":1804718827,"lat":40.31124,"lon":42.30237,"name":"Topdağı","type":"station"},{"id":1026579716,"lat":37.06664,"lon":36.14555,"name":"Toprakkale","type":"station"},{"id":13142562856,"lat":37.06661,"lon":36.1455,"name":"Toprakkale","type":"station"},{"id":10160022337,"lat":37.0762,"lon":37.36157,"name":"Topraklık","type":"station"},{"id":13270281157,"lat":39.95614,"lon":36.30193,"name":"Topulyurdu","type":"station"},{"id":13373760390,"lat":38.17012,"lon":27.34734,"name":"Torbalı","type":"station"},{"id":1024958620,"lat":37.11558,"lon":40.84434,"name":"Toruntepe Istasyon","type":"station"},{"id":10781720178,"lat":40.94641,"lon":44.63034,"name":"Tumanyan","nameLocal":"Թումանյան","type":"station"},{"id":13390864021,"lat":39.63513,"lon":29.47249,"name":"Tunçbilek","type":"station"},{"id":1811110475,"lat":40.35456,"lon":33.52849,"name":"Tüney","type":"station"},{"id":1976917822,"lat":38.46689,"lon":27.14941,"name":"Turan","type":"station"},{"id":2502946371,"lat":38.51,"lon":27.70717,"name":"Turgutlu Gar","type":"station"},{"id":8188450834,"lat":40.38959,"lon":36.07804,"name":"Turhal","type":"station"},{"id":2440043171,"lat":41.54438,"lon":31.9868,"name":"Türkali","type":"halt"},{"id":2627510830,"lat":39.82916,"lon":32.41314,"name":"Türkobası","type":"halt"},{"id":2779902461,"lat":37.37544,"lon":36.862,"name":"Türkoğlu","type":"station"},{"id":2732425626,"lat":37.01208,"lon":37.64191,"name":"Türkyurdu","type":"station"},{"id":2679027156,"lat":38.943,"lon":35.84662,"name":"Tuzhisar","type":"station"},{"id":5084154170,"lat":40.82995,"lon":29.32243,"name":"Tuzla","type":"station"},{"id":2679028082,"lat":39.00175,"lon":35.89884,"name":"Tuzla (Kayseri)","type":"station"},{"id":9727693128,"lat":41.03491,"lon":26.29335,"name":"Tychero","nameLocal":"Τυχερό","type":"station"},{"id":1039189715,"lat":41.31117,"lon":32.10361,"name":"Üçburgu","type":"halt"},{"id":2639599881,"lat":37.83359,"lon":40.34802,"name":"Uğur","type":"halt"},{"id":1018904198,"lat":37.83854,"lon":40.47224,"name":"Ulam","type":"station"},{"id":1021731954,"lat":39.44319,"lon":37.03539,"name":"Ulaş","type":"station"},{"id":1021732572,"lat":39.43667,"lon":37.04403,"name":"Ulaşşehir","type":"halt"},{"id":2627476215,"lat":41.1812,"lon":32.63786,"name":"Ülkü","type":"station"},{"id":1207395188,"lat":38.99033,"lon":37.8301,"name":"Ulugüney","type":"station"},{"id":13385848989,"lat":38.78818,"lon":41.18507,"name":"Ulukaya","type":"halt"},{"id":737949225,"lat":38.54785,"lon":27.03547,"name":"Ulukent","type":"station"},{"id":2718931904,"lat":37.54571,"lon":34.48036,"name":"Ulukışla","type":"station"},{"id":2712964885,"lat":39.48535,"lon":30.15648,"name":"Uluköy","type":"station"},{"id":2779545007,"lat":38.49245,"lon":39.20046,"name":"Uluova","type":"station"},{"id":2700446830,"lat":40.15367,"lon":36.17144,"name":"Ulusulu","type":"station"},{"id":1963402574,"lat":37.85277,"lon":27.95525,"name":"Umurlu","type":"station"},{"id":419019122,"lat":40.18286,"lon":44.49571,"name":"Uraxutyun","nameLocal":"Ուրախություն","type":"station"},{"id":6942688154,"lat":39.9225,"lon":32.93217,"name":"Üreğil","type":"station"},{"id":8193520763,"lat":41.99788,"lon":41.77978,"name":"Ureki","nameLocal":"ურეკი","type":"station"},{"id":2629874907,"lat":38.51813,"lon":27.83831,"name":"Urganlı","type":"station"},{"id":1033324723,"lat":38.66391,"lon":29.40742,"name":"Uşak Gar","type":"station"},{"id":5442551070,"lat":41.02564,"lon":29.01315,"name":"Üsküdar","type":"station"},{"id":12387720333,"lat":38.86914,"lon":40.86666,"name":"Uyanık","type":"station"},{"id":1851530432,"lat":39.96131,"lon":41.43338,"name":"Uzunahmet","type":"station"},{"id":1830006084,"lat":41.29601,"lon":26.68962,"name":"Uzunköprü","type":"station"},{"id":4934464260,"lat":40.70201,"lon":30.30914,"name":"Uzunkum","type":"halt"},{"id":13192229548,"lat":38.52168,"lon":43.38317,"name":"Van","type":"station"},{"id":602123192,"lat":38.51689,"lon":43.30842,"name":"Van Wharf","nameLocal":"Van İskele","type":"station"},{"id":3843054474,"lat":40.81592,"lon":44.48658,"name":"Vanadzor","nameLocal":"Վանաձոր","type":"station"},{"id":1129430258,"lat":40.24687,"lon":30.02763,"name":"Vezirhan","type":"station"},{"id":4784639403,"lat":41.69531,"lon":44.79187,"name":"Vilnius Square","nameLocal":"ვილნიუსის მოედანი","type":"station"},{"id":3501809550,"lat":36.16449,"lon":37.14271,"name":"Wudeihi","nameLocal":"الوضيحي","type":"station"},{"id":1375169752,"lat":36.80704,"lon":42.06354,"name":"Yaaroubia","nameLocal":"اليعربية","type":"station"},{"id":13371885220,"lat":39.90416,"lon":33.8924,"name":"Yağlı","type":"station"},{"id":134974766,"lat":40.71645,"lon":43.32965,"name":"Yahniler","type":"halt"},{"id":1038522591,"lat":39.84557,"lon":33.44711,"name":"Yahşihan","type":"station"},{"id":2313668761,"lat":39.53723,"lon":38.75203,"name":"Yahşiler","type":"station"},{"id":2733353000,"lat":36.96767,"lon":35.61247,"name":"Yakapınar","type":"station"},{"id":13504212376,"lat":39.69529,"lon":31.34029,"name":"Yalınlı","type":"station"},{"id":13385821717,"lat":38.75572,"lon":41.13109,"name":"Yamanlar","type":"halt"},{"id":2770813024,"lat":37.17799,"lon":36.48097,"name":"Yarbaşı","type":"station"},{"id":2704620183,"lat":40.06937,"lon":30.01446,"name":"Yayla","type":"station"},{"id":12426226739,"lat":38.00834,"lon":41.23028,"name":"Yaylıca","type":"halt"},{"id":303260292,"lat":38.59576,"lon":38.18169,"name":"Yazıhan","type":"station"},{"id":2925922183,"lat":38.33074,"lon":38.17624,"name":"Yazlak","type":"station"},{"id":12660716153,"lat":40.99353,"lon":28.92692,"name":"Yedikule","type":"station"},{"id":11368513448,"lat":40.29254,"lon":44.49666,"name":"Yeghvard","nameLocal":"Եղվարդ","type":"station"},{"id":13180535524,"lat":38.71923,"lon":40.32701,"name":"Yeni Suveren","type":"station"},{"id":2639614523,"lat":36.97478,"lon":35.05541,"name":"Yenice","type":"station"},{"id":2700447532,"lat":40.15973,"lon":36.2486,"name":"Yenice","type":"halt"},{"id":1022765315,"lat":39.20953,"lon":36.09286,"name":"Yeniçubuk","type":"station"},{"id":2627515614,"lat":39.69032,"lon":32.24975,"name":"Yenidoğan","type":"station"},{"id":2679017576,"lat":39.21277,"lon":35.00244,"name":"Yenifakılı","type":"station"},{"id":2676982620,"lat":39.24477,"lon":37.38951,"name":"Yenikangal","type":"station"},{"id":2511296163,"lat":41.00516,"lon":28.95156,"name":"Yenikapı","type":"station"},{"id":12660718807,"lat":41.00477,"lon":28.9524,"name":"Yenikapı","type":"station"},{"id":11932766836,"lat":39.01036,"lon":27.07044,"name":"Yenikent","type":"station"},{"id":13385844816,"lat":38.8216,"lon":41.21564,"name":"Yeniköşk","type":"halt"},{"id":1909766490,"lat":39.77841,"lon":28.00467,"name":"Yeniköy","type":"station"},{"id":1184766559,"lat":40.98173,"lon":28.88105,"name":"Yenimahale","type":"station"},{"id":11932795670,"lat":38.8837,"lon":27.08521,"name":"Yenişakran","type":"station"},{"id":6942688137,"lat":39.92911,"lon":32.85785,"name":"Yenişehir","type":"station"},{"id":13360210320,"lat":40.26267,"lon":29.54962,"name":"Yenişehir Havalimanı Hızlı Tren İstasyonu","type":"station"},{"id":1458111233,"lat":40.26303,"lon":29.54964,"name":"Yenişehir Havalimanı Hızlı Tren İstasyonu","type":"station"},{"id":11953552077,"lat":40.24932,"lon":29.65668,"name":"Yenişehir Hızlı Tren İstasyonu","type":"station"},{"id":11309220597,"lat":39.81743,"lon":34.09251,"name":"Yeniyapan","type":"station"},{"id":7564242877,"lat":40.1554,"lon":44.5078,"name":"Yerevan","nameLocal":"Երևան","type":"station"},{"id":1825492023,"lat":39.63841,"lon":34.471,"name":"Yerköy","type":"station"},{"id":9093354809,"lat":39.6871,"lon":34.46574,"name":"Yerköy","nameLocal":"Yerköy YHT","type":"station"},{"id":1028216257,"lat":37.00703,"lon":37.95515,"name":"Yeşildağ","type":"station"},{"id":12576453390,"lat":38.36531,"lon":35.08437,"name":"Yeşilhisar","type":"station"},{"id":2191160978,"lat":38.13729,"lon":30.04037,"name":"Yeşilhüyük Istasyonu","type":"station"},{"id":2629881426,"lat":38.46378,"lon":28.25776,"name":"Yeşilkavak","type":"station"},{"id":1744724160,"lat":40.96265,"lon":28.82486,"name":"Yeşilköy","type":"station"},{"id":2205115409,"lat":41.20549,"lon":32.31888,"name":"Yeşilyenice","type":"station"},{"id":1184766586,"lat":40.96545,"lon":28.83733,"name":"Yeşilyurt","type":"station"},{"id":1805807417,"lat":40.00736,"lon":36.21674,"name":"Yeşilyurt","type":"station"},{"id":6981627663,"lat":39.93235,"lon":32.70459,"name":"Yıldırım","type":"station"},{"id":1841303621,"lat":38.87761,"lon":30.12473,"name":"Yıldırım Kemal İstasyonu","type":"station"},{"id":1022214142,"lat":39.86719,"lon":36.59331,"name":"Yıldızeli","type":"station"},{"id":10858007732,"lat":39.85892,"lon":36.56232,"name":"Yıldızeli YHT","type":"station"},{"id":1805906966,"lat":40.18783,"lon":35.92097,"name":"Yıldıztepe","type":"station"},{"id":1457024310,"lat":36.98889,"lon":37.84266,"name":"Yolçatı","type":"station"},{"id":2014151828,"lat":38.54211,"lon":39.03583,"name":"Yolçatı","type":"station"},{"id":10820058344,"lat":39.7582,"lon":34.84011,"name":"Yozgat YHT","type":"station"},{"id":1907439622,"lat":40.88456,"lon":29.21041,"name":"Yunus","type":"station"},{"id":2678998489,"lat":39.70067,"lon":31.47844,"name":"Yunusemre","type":"station"},{"id":2635340741,"lat":38.63628,"lon":39.35672,"name":"Yurt","type":"station"},{"id":1027876435,"lat":36.9847,"lon":37.6859,"name":"Yuva","type":"station"},{"id":11368513437,"lat":39.9497,"lon":44.57834,"name":"Yuva","nameLocal":"Յուվա","type":"station"},{"id":2106364153,"lat":36.67898,"lon":39.16824,"name":"Zenginova Istasyon","type":"station"},{"id":288626049,"lat":42.10797,"lon":43.03909,"name":"Zestafoni","nameLocal":"ზესტაფონი","type":"station"},{"id":251733019,"lat":40.98586,"lon":28.90546,"name":"Zeytinburnu-Fişekhane","type":"station"},{"id":11932795728,"lat":38.96547,"lon":27.05055,"name":"Zeytindağ","type":"station"},{"id":2639615510,"lat":36.98916,"lon":35.14237,"name":"Zeytinli","type":"station"},{"id":1806092998,"lat":40.28148,"lon":35.93136,"name":"Zile","type":"station"},{"id":13270950268,"lat":38.7394,"lon":35.43378,"name":"Ziya Gökalp (Yeni Sanayi)","type":"station"},{"id":13546062005,"lat":37.84223,"lon":40.27202,"name":"Ziyaret","type":"halt"},{"id":13480008012,"lat":41.44697,"lon":31.79407,"name":"Zonguldak","type":"station"},{"id":3621789930,"lat":41.87221,"lon":25.98438,"name":"Бисер","type":"halt"},{"id":11132878354,"lat":41.85121,"lon":26.07383,"name":"Любимец","type":"station"},{"id":1782892851,"lat":36.5073,"lon":40.73355,"name":"الحسكة","type":"station"},{"id":2139239173,"lat":35.96645,"lon":39.01029,"name":"الرقة","type":"station"},{"id":4577413033,"lat":37.07267,"lon":41.2496,"name":"القديمة- تل زيوان","type":"station"},{"id":4672230696,"lat":35.89988,"lon":39.28164,"name":"الكرامة","type":"station"},{"id":4501618418,"lat":36.47322,"lon":37.08892,"name":"تل رفعت","type":"station"},{"id":3679312067,"lat":35.82134,"lon":36.30561,"name":"محطة قطار جسر الشغور","type":"station"},{"id":2035519544,"lat":36.82093,"lon":36.67457,"name":"ميدان إكبس","type":"station"}]